[
  {
    "name": "Hospital Alor Gajah",
    "results": [
      {
        "address_components": [
          {
            "long_name": "96W2+5R",
            "short_name": "96W2+5R",
            "types": [
              "plus_code"
            ]
          },
          {
            "long_name": "Alor Gajah",
            "short_name": "Alor Gajah",
            "types": [
              "locality",
              "political"
            ]
          },
          {
            "long_name": "Malacca",
            "short_name": "Malacca",
            "types": [
              "administrative_area_level_1",
              "political"
            ]
          },
          {
            "long_name": "Malaysia",
            "short_name": "MY",
            "types": [
              "country",
              "political"
            ]
          }
        ],
        "formatted_address": "96W2+5R Alor Gajah, Malacca, Malaysia",
        "geometry": {
          "bounds": {
            "northeast": {
              "lat": 2.3955,
              "lng": 102.202125
            },
            "southwest": {
              "lat": 2.395375,
              "lng": 102.202
            }
          },
          "location": {
            "lat": 2.3954375,
            "lng": 102.2020625
          },
          "location_type": "ROOFTOP",
          "viewport": {
            "northeast": {
              "lat": 2.396786480291502,
              "lng": 102.2034114802915
            },
            "southwest": {
              "lat": 2.394088519708498,
              "lng": 102.2007135197085
            }
          }
        },
        "place_id": "GhIJYOXQItspA0AR4E-Nl-6MWUA",
        "plus_code": {
          "compound_code": "96W2+5R Alor Gajah, Malacca, Malaysia",
          "global_code": "6PJ496W2+5R"
        },
        "types": [
          "plus_code"
        ]
      }
    ]
  },
  {
    "name": "Hospital Ampang",
    "results": [
      {
        "address_components": [
          {
            "long_name": "4QH7+7J",
            "short_name": "4QH7+7J",
            "types": [
              "plus_code"
            ]
          },
          {
            "long_name": "Ampang Jaya",
            "short_name": "Ampang Jaya",
            "types": [
              "locality",
              "political"
            ]
          },
          {
            "long_name": "Selangor",
            "short_name": "Selangor",
            "types": [
              "administrative_area_level_1",
              "political"
            ]
          },
          {
            "long_name": "Malaysia",
            "short_name": "MY",
            "types": [
              "country",
              "political"
            ]
          }
        ],
        "formatted_address": "4QH7+7J Ampang Jaya, Selangor, Malaysia",
        "geometry": {
          "bounds": {
            "northeast": {
              "lat": 3.12825,
              "lng": 101.764125
            },
            "southwest": {
              "lat": 3.128125,
              "lng": 101.764
            }
          },
          "location": {
            "lat": 3.1281875,
            "lng": 101.7640625
          },
          "location_type": "ROOFTOP",
          "viewport": {
            "northeast": {
              "lat": 3.129536480291502,
              "lng": 101.7654114802915
            },
            "southwest": {
              "lat": 3.126838519708498,
              "lng": 101.7627135197085
            }
          }
        },
        "place_id": "GhIJSQwCK4cGCUARZmZmZuZwWUA",
        "plus_code": {
          "compound_code": "4QH7+7J Ampang Jaya, Selangor, Malaysia",
          "global_code": "6PM34QH7+7J"
        },
        "types": [
          "plus_code"
        ]
      }
    ]
  },
  {
    "name": "Hospital Bahagia Ulu Kinta",
    "results": [
      {
        "address_components": [
          {
            "long_name": "M5G2+67",
            "short_name": "M5G2+67",
            "types": [
              "plus_code"
            ]
          },
          {
            "long_name": "Tanjung Rambutan",
            "short_name": "Tanjung Rambutan",
            "types": [
              "locality",
              "political"
            ]
          },
          {
            "long_name": "Perak",
            "short_name": "Perak",
            "types": [
              "administrative_area_level_1",
              "political"
            ]
          },
          {
            "long_name": "Malaysia",
            "short_name": "MY",
            "types": [
              "country",
              "political"
            ]
          }
        ],
        "formatted_address": "M5G2+67 Tanjung Rambutan, Perak, Malaysia",
        "geometry": {
          "bounds": {
            "northeast": {
              "lat": 4.675625,
              "lng": 101.15075
            },
            "southwest": {
              "lat": 4.6755,
              "lng": 101.150625
            }
          },
          "location": {
            "lat": 4.6755625,
            "lng": 101.1506875
          },
          "location_type": "ROOFTOP",
          "viewport": {
            "northeast": {
              "lat": 4.676911480291502,
              "lng": 101.1520364802915
            },
            "southwest": {
              "lat": 4.674213519708498,
              "lng": 101.1493385197085
            }
          }
        },
        "place_id": "GhIJsp3vp8azEkARnxov3aRJWUA",
        "plus_code": {
          "compound_code": "M5G2+67 Tanjung Rambutan, Perak, Malaysia",
          "global_code": "6PP3M5G2+67"
        },
        "types": [
          "plus_code"
        ]
      }
    ]
  },
  {
    "name": "Hospital Balik Pulau",
    "results": [
      {
        "address_components": [
          {
            "long_name": "962M+37",
            "short_name": "962M+37",
            "types": [
              "plus_code"
            ]
          },
          {
            "long_name": "Balik Pulau",
            "short_name": "Balik Pulau",
            "types": [
              "locality",
              "political"
            ]
          },
          {
            "long_name": "Penang",
            "short_name": "Penang",
            "types": [
              "administrative_area_level_1",
              "political"
            ]
          },
          {
            "long_name": "Malaysia",
            "short_name": "MY",
            "types": [
              "country",
              "political"
            ]
          }
        ],
        "formatted_address": "962M+37 Balik Pulau, Penang, Malaysia",
        "geometry": {
          "bounds": {
            "northeast": {
              "lat": 5.35025,
              "lng": 100.23325
            },
            "southwest": {
              "lat": 5.350124999999999,
              "lng": 100.233125
            }
          },
          "location": {
            "lat": 5.3501875,
            "lng": 100.2331875
          },
          "location_type": "ROOFTOP",
          "viewport": {
            "northeast": {
              "lat": 5.351536480291502,
              "lng": 100.2345364802915
            },
            "southwest": {
              "lat": 5.348838519708497,
              "lng": 100.2318385197085
            }
          }
        },
        "place_id": "GhIJO99PjZdmFUARgpVDi-wOWUA",
        "plus_code": {
          "compound_code": "962M+37 Balik Pulau, Penang, Malaysia",
          "global_code": "6PQ2962M+37"
        },
        "types": [
          "plus_code"
        ]
      }
    ]
  },
  {
    "name": "Hospital Baling",
    "results": [
      {
        "address_components": [
          {
            "long_name": "MWHG+G2",
            "short_name": "MWHG+G2",
            "types": [
              "plus_code"
            ]
          },
          {
            "long_name": "Baling",
            "short_name": "Baling",
            "types": [
              "locality",
              "political"
            ]
          },
          {
            "long_name": "Kedah",
            "short_name": "Kedah",
            "types": [
              "administrative_area_level_1",
              "political"
            ]
          },
          {
            "long_name": "Malaysia",
            "short_name": "MY",
            "types": [
              "country",
              "political"
            ]
          }
        ],
        "formatted_address": "MWHG+G2 Baling, Kedah, Malaysia",
        "geometry": {
          "bounds": {
            "northeast": {
              "lat": 5.678875,
              "lng": 100.925125
            },
            "southwest": {
              "lat": 5.67875,
              "lng": 100.925
            }
          },
          "location": {
            "lat": 5.678812499999999,
            "lng": 100.9250625
          },
          "location_type": "ROOFTOP",
          "viewport": {
            "northeast": {
              "lat": 5.680161480291502,
              "lng": 100.9264114802915
            },
            "southwest": {
              "lat": 5.677463519708497,
              "lng": 100.9237135197085
            }
          }
        },
        "place_id": "GhIJyHa-nxq3FkARYhBYOTQ7WUA",
        "plus_code": {
          "compound_code": "MWHG+G2 Baling, Kedah, Malaysia",
          "global_code": "6PQ2MWHG+G2"
        },
        "types": [
          "plus_code"
        ]
      }
    ]
  },
  {
    "name": "Hospital Banting",
    "results": [
      {
        "address_components": [
          {
            "long_name": "RF3V+4G",
            "short_name": "RF3V+4G",
            "types": [
              "plus_code"
            ]
          },
          {
            "long_name": "Banting",
            "short_name": "Banting",
            "types": [
              "locality",
              "political"
            ]
          },
          {
            "long_name": "Selangor",
            "short_name": "Selangor",
            "types": [
              "administrative_area_level_1",
              "political"
            ]
          },
          {
            "long_name": "Malaysia",
            "short_name": "MY",
            "types": [
              "country",
              "political"
            ]
          }
        ],
        "formatted_address": "RF3V+4G Banting, Selangor, Malaysia",
        "geometry": {
          "bounds": {
            "northeast": {
              "lat": 2.802875,
              "lng": 101.493875
            },
            "southwest": {
              "lat": 2.80275,
              "lng": 101.49375
            }
          },
          "location": {
            "lat": 2.8028125,
            "lng": 101.4938125
          },
          "location_type": "ROOFTOP",
          "viewport": {
            "northeast": {
              "lat": 2.804161480291502,
              "lng": 101.4951614802915
            },
            "southwest": {
              "lat": 2.801463519708498,
              "lng": 101.4924635197085
            }
          }
        },
        "place_id": "GhIJXI_C9ShsBkARyHa-n5pfWUA",
        "plus_code": {
          "compound_code": "RF3V+4G Banting, Selangor, Malaysia",
          "global_code": "6PJ3RF3V+4G"
        },
        "types": [
          "plus_code"
        ]
      }
    ]
  },
  {
    "name": "Hospital Batu Gajah",
    "results": [
      {
        "address_components": [
          {
            "long_name": "F2HP+Q2",
            "short_name": "F2HP+Q2",
            "types": [
              "plus_code"
            ]
          },
          {
            "long_name": "Batu Gajah",
            "short_name": "Batu Gajah",
            "types": [
              "locality",
              "political"
            ]
          },
          {
            "long_name": "Perak",
            "short_name": "Perak",
            "types": [
              "administrative_area_level_1",
              "political"
            ]
          },
          {
            "long_name": "Malaysia",
            "short_name": "MY",
            "types": [
              "country",
              "political"
            ]
          }
        ],
        "formatted_address": "F2HP+Q2 Batu Gajah, Perak, Malaysia",
        "geometry": {
          "bounds": {
            "northeast": {
              "lat": 4.4795,
              "lng": 101.035125
            },
            "southwest": {
              "lat": 4.479375,
              "lng": 101.035
            }
          },
          "location": {
            "lat": 4.4794375,
            "lng": 101.0350625
          },
          "location_type": "ROOFTOP",
          "viewport": {
            "northeast": {
              "lat": 4.480786480291503,
              "lng": 101.0364114802915
            },
            "southwest": {
              "lat": 4.478088519708498,
              "lng": 101.0337135197085
            }
          }
        },
        "place_id": "GhIJbOf7qfHqEUARObTIdj5CWUA",
        "plus_code": {
          "compound_code": "F2HP+Q2 Batu Gajah, Perak, Malaysia",
          "global_code": "6PP3F2HP+Q2"
        },
        "types": [
          "plus_code"
        ]
      }
    ]
  },
  {
    "name": "Hospital Bau",
    "results": [
      {
        "address_components": [
          {
            "long_name": "C4HV+R3",
            "short_name": "C4HV+R3",
            "types": [
              "plus_code"
            ]
          },
          {
            "long_name": "Bau",
            "short_name": "Bau",
            "types": [
              "locality",
              "political"
            ]
          },
          {
            "long_name": "Sarawak",
            "short_name": "Sarawak",
            "types": [
              "administrative_area_level_1",
              "political"
            ]
          },
          {
            "long_name": "Malaysia",
            "short_name": "MY",
            "types": [
              "country",
              "political"
            ]
          }
        ],
        "formatted_address": "C4HV+R3 Bau, Sarawak, Malaysia",
        "geometry": {
          "bounds": {
            "northeast": {
              "lat": 1.429625,
              "lng": 110.14275
            },
            "southwest": {
              "lat": 1.4295,
              "lng": 110.142625
            }
          },
          "location": {
            "lat": 1.4295625,
            "lng": 110.1426875
          },
          "location_type": "ROOFTOP",
          "viewport": {
            "northeast": {
              "lat": 1.430911480291502,
              "lng": 110.1440364802915
            },
            "southwest": {
              "lat": 1.428213519708498,
              "lng": 110.1413385197085
            }
          }
        },
        "place_id": "GhIJcmiR7Xzf9j8REoPAyiGJW0A",
        "plus_code": {
          "compound_code": "C4HV+R3 Bau, Sarawak, Malaysia",
          "global_code": "6PHGC4HV+R3"
        },
        "types": [
          "plus_code"
        ]
      }
    ]
  },
  {
    "name": "Hospital Beaufort",
    "results": [
      {
        "address_components": [
          {
            "long_name": "9P2R+H9",
            "short_name": "9P2R+H9",
            "types": [
              "plus_code"
            ]
          },
          {
            "long_name": "Beaufort",
            "short_name": "Beaufort",
            "types": [
              "locality",
              "political"
            ]
          },
          {
            "long_name": "Sabah",
            "short_name": "Sabah",
            "types": [
              "administrative_area_level_1",
              "political"
            ]
          },
          {
            "long_name": "Malaysia",
            "short_name": "MY",
            "types": [
              "country",
              "political"
            ]
          }
        ],
        "formatted_address": "9P2R+H9 Beaufort, Sabah, Malaysia",
        "geometry": {
          "bounds": {
            "northeast": {
              "lat": 5.3515,
              "lng": 115.741
            },
            "southwest": {
              "lat": 5.351375,
              "lng": 115.740875
            }
          },
          "location": {
            "lat": 5.351437499999999,
            "lng": 115.7409375
          },
          "location_type": "ROOFTOP",
          "viewport": {
            "northeast": {
              "lat": 5.352786480291502,
              "lng": 115.7422864802915
            },
            "southwest": {
              "lat": 5.350088519708498,
              "lng": 115.7395885197085
            }
          }
        },
        "place_id": "GhIJHFpkO99nFUARUrgehWvvXEA",
        "plus_code": {
          "compound_code": "9P2R+H9 Beaufort, Sabah, Malaysia",
          "global_code": "6PQQ9P2R+H9"
        },
        "types": [
          "plus_code"
        ]
      }
    ]
  },
  {
    "name": "Hospital Beluran",
    "results": [
      {
        "address_components": [
          {
            "long_name": "VHV4+95",
            "short_name": "VHV4+95",
            "types": [
              "plus_code"
            ]
          },
          {
            "long_name": "Pamol",
            "short_name": "Pamol",
            "types": [
              "locality",
              "political"
            ]
          },
          {
            "long_name": "Sabah",
            "short_name": "Sabah",
            "types": [
              "administrative_area_level_1",
              "political"
            ]
          },
          {
            "long_name": "Malaysia",
            "short_name": "MY",
            "types": [
              "country",
              "political"
            ]
          }
        ],
        "formatted_address": "VHV4+95 Pamol, Sabah, Malaysia",
        "geometry": {
          "bounds": {
            "northeast": {
              "lat": 5.8935,
              "lng": 117.5555
            },
            "southwest": {
              "lat": 5.893375,
              "lng": 117.555375
            }
          },
          "location": {
            "lat": 5.8934375,
            "lng": 117.5554375
          },
          "location_type": "ROOFTOP",
          "viewport": {
            "northeast": {
              "lat": 5.894786480291502,
              "lng": 117.5567864802915
            },
            "southwest": {
              "lat": 5.892088519708498,
              "lng": 117.5540885197085
            }
          }
        },
        "place_id": "GhIJexSuR-GSF0ARNV66SYxjXUA",
        "plus_code": {
          "compound_code": "VHV4+95 Pamol, Sabah, Malaysia",
          "global_code": "6PQVVHV4+95"
        },
        "types": [
          "plus_code"
        ]
      }
    ]
  },
  {
    "name": "Hospital Bentong",
    "results": [
      {
        "address_components": [
          {
            "long_name": "GWG4+46",
            "short_name": "GWG4+46",
            "types": [
              "plus_code"
            ]
          },
          {
            "long_name": "Bentong",
            "short_name": "Bentong",
            "types": [
              "locality",
              "political"
            ]
          },
          {
            "long_name": "Pahang",
            "short_name": "Pahang",
            "types": [
              "administrative_area_level_1",
              "political"
            ]
          },
          {
            "long_name": "Malaysia",
            "short_name": "MY",
            "types": [
              "country",
              "political"
            ]
          }
        ],
        "formatted_address": "GWG4+46 Bentong, Pahang, Malaysia",
        "geometry": {
          "bounds": {
            "northeast": {
              "lat": 3.525375,
              "lng": 101.905625
            },
            "southwest": {
              "lat": 3.52525,
              "lng": 101.9055
            }
          },
          "location": {
            "lat": 3.5253125,
            "lng": 101.9055625
          },
          "location_type": "ROOFTOP",
          "viewport": {
            "northeast": {
              "lat": 3.526661480291502,
              "lng": 101.9069114802915
            },
            "southwest": {
              "lat": 3.523963519708498,
              "lng": 101.9042135197085
            }
          }
        },
        "place_id": "GhIJo3A9CtczDEAR-n5qvPR5WUA",
        "plus_code": {
          "compound_code": "GWG4+46 Bentong, Pahang, Malaysia",
          "global_code": "6PM3GWG4+46"
        },
        "types": [
          "plus_code"
        ]
      }
    ]
  },
  {
    "name": "Hospital Besut",
    "results": [
      {
        "address_components": [
          {
            "long_name": "PFHR+JJ",
            "short_name": "PFHR+JJ",
            "types": [
              "plus_code"
            ]
          },
          {
            "long_name": "Jerteh",
            "short_name": "Jerteh",
            "types": [
              "locality",
              "political"
            ]
          },
          {
            "long_name": "Terengganu",
            "short_name": "Terengganu",
            "types": [
              "administrative_area_level_1",
              "political"
            ]
          },
          {
            "long_name": "Malaysia",
            "short_name": "MY",
            "types": [
              "country",
              "political"
            ]
          }
        ],
        "formatted_address": "PFHR+JJ Jerteh, Terengganu, Malaysia",
        "geometry": {
          "bounds": {
            "northeast": {
              "lat": 5.729125,
              "lng": 102.491625
            },
            "southwest": {
              "lat": 5.729,
              "lng": 102.4915
            }
          },
          "location": {
            "lat": 5.7290625,
            "lng": 102.4915625
          },
          "location_type": "ROOFTOP",
          "viewport": {
            "northeast": {
              "lat": 5.730411480291502,
              "lng": 102.4929114802915
            },
            "southwest": {
              "lat": 5.727713519708497,
              "lng": 102.4902135197085
            }
          }
        },
        "place_id": "GhIJwvUoXI_qFkARKVyPwnWfWUA",
        "plus_code": {
          "compound_code": "PFHR+JJ Jerteh, Terengganu, Malaysia",
          "global_code": "6PQ4PFHR+JJ"
        },
        "types": [
          "plus_code"
        ]
      }
    ]
  },
  {
    "name": "Hospital Betong",
    "results": [
      {
        "address_components": [
          {
            "long_name": "9HFF+HG",
            "short_name": "9HFF+HG",
            "types": [
              "plus_code"
            ]
          },
          {
            "long_name": "Betong",
            "short_name": "Betong",
            "types": [
              "locality",
              "political"
            ]
          },
          {
            "long_name": "Sarawak",
            "short_name": "Sarawak",
            "types": [
              "administrative_area_level_1",
              "political"
            ]
          },
          {
            "long_name": "Malaysia",
            "short_name": "MY",
            "types": [
              "country",
              "political"
            ]
          }
        ],
        "formatted_address": "9HFF+HG Betong, Sarawak, Malaysia",
        "geometry": {
          "bounds": {
            "northeast": {
              "lat": 1.374,
              "lng": 111.573875
            },
            "southwest": {
              "lat": 1.373875,
              "lng": 111.57375
            }
          },
          "location": {
            "lat": 1.3739375,
            "lng": 111.5738125
          },
          "location_type": "ROOFTOP",
          "viewport": {
            "northeast": {
              "lat": 1.375286480291502,
              "lng": 111.5751614802915
            },
            "southwest": {
              "lat": 1.372588519708498,
              "lng": 111.5724635197085
            }
          }
        },
        "place_id": "GhIJz_dT46X79T8RTWIQWLnkW0A",
        "plus_code": {
          "compound_code": "9HFF+HG Betong, Sarawak, Malaysia",
          "global_code": "6PHH9HFF+HG"
        },
        "types": [
          "plus_code"
        ]
      }
    ]
  },
  {
    "name": "Hospital Bintulu",
    "results": [
      {
        "address_components": [
          {
            "long_name": "64H2+VC",
            "short_name": "64H2+VC",
            "types": [
              "plus_code"
            ]
          },
          {
            "long_name": "Tanjung Kidurong",
            "short_name": "Tanjung Kidurong",
            "types": [
              "locality",
              "political"
            ]
          },
          {
            "long_name": "Sarawak",
            "short_name": "Sarawak",
            "types": [
              "administrative_area_level_1",
              "political"
            ]
          },
          {
            "long_name": "Malaysia",
            "short_name": "MY",
            "types": [
              "country",
              "political"
            ]
          }
        ],
        "formatted_address": "64H2+VC Tanjung Kidurong, Sarawak, Malaysia",
        "geometry": {
          "bounds": {
            "northeast": {
              "lat": 3.22975,
              "lng": 113.101125
            },
            "southwest": {
              "lat": 3.229625,
              "lng": 113.101
            }
          },
          "location": {
            "lat": 3.2296875,
            "lng": 113.1010625
          },
          "location_type": "ROOFTOP",
          "viewport": {
            "northeast": {
              "lat": 3.231036480291502,
              "lng": 113.1024114802915
            },
            "southwest": {
              "lat": 3.228338519708498,
              "lng": 113.0997135197085
            }
          }
        },
        "place_id": "GhIJZmZmZmbWCUARhxbZzndGXEA",
        "plus_code": {
          "compound_code": "64H2+VC Tanjung Kidurong, Sarawak, Malaysia",
          "global_code": "6PMM64H2+VC"
        },
        "types": [
          "plus_code"
        ]
      }
    ]
  },
  {
    "name": "Hospital Bukit Mertajam",
    "results": [
      {
        "address_components": [
          {
            "long_name": "9F57+PJ",
            "short_name": "9F57+PJ",
            "types": [
              "plus_code"
            ]
          },
          {
            "long_name": "Bukit Mertajam",
            "short_name": "Bukit Mertajam",
            "types": [
              "locality",
              "political"
            ]
          },
          {
            "long_name": "Penang",
            "short_name": "Penang",
            "types": [
              "administrative_area_level_1",
              "political"
            ]
          },
          {
            "long_name": "Malaysia",
            "short_name": "MY",
            "types": [
              "country",
              "political"
            ]
          }
        ],
        "formatted_address": "9F57+PJ Bukit Mertajam, Penang, Malaysia",
        "geometry": {
          "bounds": {
            "northeast": {
              "lat": 5.359375,
              "lng": 100.464125
            },
            "southwest": {
              "lat": 5.359249999999999,
              "lng": 100.464
            }
          },
          "location": {
            "lat": 5.3593125,
            "lng": 100.4640625
          },
          "location_type": "ROOFTOP",
          "viewport": {
            "northeast": {
              "lat": 5.360661480291502,
              "lng": 100.4654114802915
            },
            "southwest": {
              "lat": 5.357963519708497,
              "lng": 100.4627135197085
            }
          }
        },
        "place_id": "GhIJDi2yne9vFUARMzMzM7MdWUA",
        "plus_code": {
          "compound_code": "9F57+PJ Bukit Mertajam, Penang, Malaysia",
          "global_code": "6PQ29F57+PJ"
        },
        "types": [
          "plus_code"
        ]
      }
    ]
  },
  {
    "name": "Hospital Changkat Melintang",
    "results": [
      {
        "address_components": [
          {
            "long_name": "8W76+55",
            "short_name": "8W76+55",
            "types": [
              "plus_code"
            ]
          },
          {
            "long_name": "Bota",
            "short_name": "Bota",
            "types": [
              "locality",
              "political"
            ]
          },
          {
            "long_name": "Perak",
            "short_name": "Perak",
            "types": [
              "administrative_area_level_1",
              "political"
            ]
          },
          {
            "long_name": "Malaysia",
            "short_name": "MY",
            "types": [
              "country",
              "political"
            ]
          }
        ],
        "formatted_address": "8W76+55 Bota, Perak, Malaysia",
        "geometry": {
          "bounds": {
            "northeast": {
              "lat": 4.313,
              "lng": 100.9105
            },
            "southwest": {
              "lat": 4.312875,
              "lng": 100.910375
            }
          },
          "location": {
            "lat": 4.312937499999999,
            "lng": 100.9104375
          },
          "location_type": "ROOFTOP",
          "viewport": {
            "northeast": {
              "lat": 4.314286480291503,
              "lng": 100.9117864802915
            },
            "southwest": {
              "lat": 4.311588519708498,
              "lng": 100.9090885197085
            }
          }
        },
        "place_id": "GhIJm8QgsHJAEUARVeOlm0Q6WUA",
        "plus_code": {
          "compound_code": "8W76+55 Bota, Perak, Malaysia",
          "global_code": "6PP28W76+55"
        },
        "types": [
          "plus_code"
        ]
      }
    ]
  },
  {
    "name": "Hospital Dalat",
    "results": [
      {
        "address_components": [
          {
            "long_name": "PWWW+3C",
            "short_name": "PWWW+3C",
            "types": [
              "plus_code"
            ]
          },
          {
            "long_name": "Pekan Dalat",
            "short_name": "Pekan Dalat",
            "types": [
              "political",
              "sublocality",
              "sublocality_level_1"
            ]
          },
          {
            "long_name": "Dalat",
            "short_name": "Dalat",
            "types": [
              "locality",
              "political"
            ]
          },
          {
            "long_name": "Sarawak",
            "short_name": "Sarawak",
            "types": [
              "administrative_area_level_1",
              "political"
            ]
          },
          {
            "long_name": "Malaysia",
            "short_name": "MY",
            "types": [
              "country",
              "political"
            ]
          },
          {
            "long_name": "96300",
            "short_name": "96300",
            "types": [
              "postal_code"
            ]
          }
        ],
        "formatted_address": "PWWW+3C Pekan Dalat, Dalat, Sarawak, Malaysia",
        "geometry": {
          "bounds": {
            "northeast": {
              "lat": 2.74525,
              "lng": 111.946125
            },
            "southwest": {
              "lat": 2.745125,
              "lng": 111.946
            }
          },
          "location": {
            "lat": 2.7451875,
            "lng": 111.9460625
          },
          "location_type": "ROOFTOP",
          "viewport": {
            "northeast": {
              "lat": 2.746536480291502,
              "lng": 111.9474114802915
            },
            "southwest": {
              "lat": 2.743838519708498,
              "lng": 111.9447135197085
            }
          }
        },
        "partial_match": true,
        "place_id": "GhIJnxov3ST2BUARNV66SYz8W0A",
        "plus_code": {
          "compound_code": "PWWW+3C Pekan Dalat, Dalat, Sarawak, Malaysia",
          "global_code": "6PJHPWWW+3C"
        },
        "types": [
          "plus_code"
        ]
      }
    ]
  },
  {
    "name": "Hospital Daro",
    "results": [
      {
        "address_components": [
          {
            "long_name": "GCC7+P7",
            "short_name": "GCC7+P7",
            "types": [
              "plus_code"
            ]
          },
          {
            "long_name": "Daro",
            "short_name": "Daro",
            "types": [
              "locality",
              "political"
            ]
          },
          {
            "long_name": "Sarawak",
            "short_name": "Sarawak",
            "types": [
              "administrative_area_level_1",
              "political"
            ]
          },
          {
            "long_name": "Malaysia",
            "short_name": "MY",
            "types": [
              "country",
              "political"
            ]
          }
        ],
        "formatted_address": "GCC7+P7 Daro, Sarawak, Malaysia",
        "geometry": {
          "bounds": {
            "northeast": {
              "lat": 2.521875,
              "lng": 111.41325
            },
            "southwest": {
              "lat": 2.52175,
              "lng": 111.413125
            }
          },
          "location": {
            "lat": 2.5218125,
            "lng": 111.4131875
          },
          "location_type": "ROOFTOP",
          "viewport": {
            "northeast": {
              "lat": 2.523161480291502,
              "lng": 111.4145364802915
            },
            "southwest": {
              "lat": 2.520463519708498,
              "lng": 111.4118385197085
            }
          }
        },
        "place_id": "GhIJ6SYxCKwsBEARbOf7qXHaW0A",
        "plus_code": {
          "compound_code": "GCC7+P7 Daro, Sarawak, Malaysia",
          "global_code": "6PJHGCC7+P7"
        },
        "types": [
          "plus_code"
        ]
      }
    ]
  },
  {
    "name": "Hospital Duchess Of Kent",
    "results": [
      {
        "address_components": [
          {
            "long_name": "V453+C9",
            "short_name": "V453+C9",
            "types": [
              "plus_code"
            ]
          },
          {
            "long_name": "Taman Yeng Seng",
            "short_name": "Taman Yeng Seng",
            "types": [
              "political",
              "sublocality",
              "sublocality_level_1"
            ]
          },
          {
            "long_name": "Sandakan",
            "short_name": "Sandakan",
            "types": [
              "locality",
              "political"
            ]
          },
          {
            "long_name": "Sabah",
            "short_name": "Sabah",
            "types": [
              "administrative_area_level_1",
              "political"
            ]
          },
          {
            "long_name": "Malaysia",
            "short_name": "MY",
            "types": [
              "country",
              "political"
            ]
          },
          {
            "long_name": "90000",
            "short_name": "90000",
            "types": [
              "postal_code"
            ]
          }
        ],
        "formatted_address": "V453+C9 Taman Yeng Seng, Sandakan, Sabah, Malaysia",
        "geometry": {
          "bounds": {
            "northeast": {
              "lat": 5.858625,
              "lng": 118.1035
            },
            "southwest": {
              "lat": 5.858499999999999,
              "lng": 118.103375
            }
          },
          "location": {
            "lat": 5.8585625,
            "lng": 118.1034375
          },
          "location_type": "ROOFTOP",
          "viewport": {
            "northeast": {
              "lat": 5.859911480291502,
              "lng": 118.1047864802915
            },
            "southwest": {
              "lat": 5.857213519708497,
              "lng": 118.1020885197085
            }
          }
        },
        "place_id": "GhIJukkMAitvF0ARhetRuJ6GXUA",
        "plus_code": {
          "compound_code": "V453+C9 Taman Yeng Seng, Sandakan, Sabah, Malaysia",
          "global_code": "6PQWV453+C9"
        },
        "types": [
          "plus_code"
        ]
      }
    ]
  },
  {
    "name": "Hospital Dungun",
    "results": [
      {
        "address_components": [
          {
            "long_name": "QC27+QW",
            "short_name": "QC27+QW",
            "types": [
              "plus_code"
            ]
          },
          {
            "long_name": "Kuala Dungun",
            "short_name": "Kuala Dungun",
            "types": [
              "locality",
              "political"
            ]
          },
          {
            "long_name": "Terengganu",
            "short_name": "Terengganu",
            "types": [
              "administrative_area_level_1",
              "political"
            ]
          },
          {
            "long_name": "Malaysia",
            "short_name": "MY",
            "types": [
              "country",
              "political"
            ]
          }
        ],
        "formatted_address": "QC27+QW Kuala Dungun, Terengganu, Malaysia",
        "geometry": {
          "bounds": {
            "northeast": {
              "lat": 4.752,
              "lng": 103.414875
            },
            "southwest": {
              "lat": 4.751875,
              "lng": 103.41475
            }
          },
          "location": {
            "lat": 4.751937499999999,
            "lng": 103.4148125
          },
          "location_type": "ROOFTOP",
          "viewport": {
            "northeast": {
              "lat": 4.753286480291503,
              "lng": 103.4161614802915
            },
            "southwest": {
              "lat": 4.750588519708498,
              "lng": 103.4134635197085
            }
          }
        },
        "place_id": "GhIJQ4ts5_sBE0ARNV66SYzaWUA",
        "plus_code": {
          "compound_code": "QC27+QW Kuala Dungun, Terengganu, Malaysia",
          "global_code": "6PP5QC27+QW"
        },
        "types": [
          "plus_code"
        ]
      }
    ]
  },
  {
    "name": "Hospital Enche' Besar Hajjah Kalsom, Kluang",
    "results": [
      {
        "address_components": [
          {
            "long_name": "285W+6R",
            "short_name": "285W+6R",
            "types": [
              "plus_code"
            ]
          },
          {
            "long_name": "Kluang",
            "short_name": "Kluang",
            "types": [
              "locality",
              "political"
            ]
          },
          {
            "long_name": "Johor",
            "short_name": "Johor",
            "types": [
              "administrative_area_level_1",
              "political"
            ]
          },
          {
            "long_name": "Malaysia",
            "short_name": "MY",
            "types": [
              "country",
              "political"
            ]
          }
        ],
        "formatted_address": "285W+6R Kluang, Johor, Malaysia",
        "geometry": {
          "bounds": {
            "northeast": {
              "lat": 2.008125,
              "lng": 103.347125
            },
            "southwest": {
              "lat": 2.008,
              "lng": 103.347
            }
          },
          "location": {
            "lat": 2.0080625,
            "lng": 103.3470625
          },
          "location_type": "ROOFTOP",
          "viewport": {
            "northeast": {
              "lat": 2.009411480291502,
              "lng": 103.3484114802915
            },
            "southwest": {
              "lat": 2.006713519708498,
              "lng": 103.3457135197085
            }
          }
        },
        "place_id": "GhIJjpduEoMQAEARwMqhRTbWWUA",
        "plus_code": {
          "compound_code": "285W+6R Kluang, Johor, Malaysia",
          "global_code": "6PJ5285W+6R"
        },
        "types": [
          "plus_code"
        ]
      }
    ]
  },
  {
    "name": "Hospital Gerik",
    "results": [
      {
        "address_components": [
          {
            "long_name": "C4HH+J5",
            "short_name": "C4HH+J5",
            "types": [
              "plus_code"
            ]
          },
          {
            "long_name": "Gerik",
            "short_name": "Gerik",
            "types": [
              "locality",
              "political"
            ]
          },
          {
            "long_name": "Perak",
            "short_name": "Perak",
            "types": [
              "administrative_area_level_1",
              "political"
            ]
          },
          {
            "long_name": "Malaysia",
            "short_name": "MY",
            "types": [
              "country",
              "political"
            ]
          }
        ],
        "formatted_address": "C4HH+J5 Gerik, Perak, Malaysia",
        "geometry": {
          "bounds": {
            "northeast": {
              "lat": 5.429125,
              "lng": 101.128
            },
            "southwest": {
              "lat": 5.428999999999999,
              "lng": 101.127875
            }
          },
          "location": {
            "lat": 5.4290625,
            "lng": 101.1279375
          },
          "location_type": "ROOFTOP",
          "viewport": {
            "northeast": {
              "lat": 5.430411480291502,
              "lng": 101.1292864802915
            },
            "southwest": {
              "lat": 5.427713519708497,
              "lng": 101.1265885197085
            }
          }
        },
        "place_id": "GhIJj8L1KFy3FUARppvEIDBIWUA",
        "plus_code": {
          "compound_code": "C4HH+J5 Gerik, Perak, Malaysia",
          "global_code": "6PQ3C4HH+J5"
        },
        "types": [
          "plus_code"
        ]
      }
    ]
  },
  {
    "name": "Hospital Gua Musang",
    "results": [
      {
        "address_components": [
          {
            "long_name": "VX53+VW",
            "short_name": "VX53+VW",
            "types": [
              "plus_code"
            ]
          },
          {
            "long_name": "Gua Musang",
            "short_name": "Gua Musang",
            "types": [
              "locality",
              "political"
            ]
          },
          {
            "long_name": "Kelantan",
            "short_name": "Kelantan",
            "types": [
              "administrative_area_level_1",
              "political"
            ]
          },
          {
            "long_name": "Malaysia",
            "short_name": "MY",
            "types": [
              "country",
              "political"
            ]
          },
          {
            "long_name": "18300",
            "short_name": "18300",
            "types": [
              "postal_code"
            ]
          }
        ],
        "formatted_address": "VX53+VW Gua Musang, Kelantan, Malaysia",
        "geometry": {
          "bounds": {
            "northeast": {
              "lat": 4.85975,
              "lng": 101.954875
            },
            "southwest": {
              "lat": 4.859624999999999,
              "lng": 101.95475
            }
          },
          "location": {
            "lat": 4.8596875,
            "lng": 101.9548125
          },
          "location_type": "ROOFTOP",
          "viewport": {
            "northeast": {
              "lat": 4.861036480291502,
              "lng": 101.9561614802915
            },
            "southwest": {
              "lat": 4.858338519708497,
              "lng": 101.9534635197085
            }
          }
        },
        "place_id": "GhIJuB6F61FwE0AR91PjpRt9WUA",
        "plus_code": {
          "compound_code": "VX53+VW Gua Musang, Kelantan, Malaysia",
          "global_code": "6PP3VX53+VW"
        },
        "types": [
          "plus_code"
        ]
      }
    ]
  },
  {
    "name": "Hospital Hulu Terengganu",
    "results": [
      {
        "address_components": [
          {
            "long_name": "32FV+7W",
            "short_name": "32FV+7W",
            "types": [
              "plus_code"
            ]
          },
          {
            "long_name": "Kuala Berang",
            "short_name": "Kuala Berang",
            "types": [
              "locality",
              "political"
            ]
          },
          {
            "long_name": "Terengganu",
            "short_name": "Terengganu",
            "types": [
              "administrative_area_level_1",
              "political"
            ]
          },
          {
            "long_name": "Malaysia",
            "short_name": "MY",
            "types": [
              "country",
              "political"
            ]
          }
        ],
        "formatted_address": "32FV+7W Kuala Berang, Terengganu, Malaysia",
        "geometry": {
          "bounds": {
            "northeast": {
              "lat": 5.07325,
              "lng": 103.044875
            },
            "southwest": {
              "lat": 5.073125,
              "lng": 103.04475
            }
          },
          "location": {
            "lat": 5.0731875,
            "lng": 103.0448125
          },
          "location_type": "ROOFTOP",
          "viewport": {
            "northeast": {
              "lat": 5.074536480291502,
              "lng": 103.0461614802915
            },
            "southwest": {
              "lat": 5.071838519708498,
              "lng": 103.0434635197085
            }
          }
        },
        "place_id": "GhIJbOf7qfFKFEAR7Xw_Nd7CWUA",
        "plus_code": {
          "compound_code": "32FV+7W Kuala Berang, Terengganu, Malaysia",
          "global_code": "6PQ532FV+7W"
        },
        "types": [
          "plus_code"
        ]
      }
    ]
  },
  {
    "name": "Hospital Jasin",
    "results": [
      {
        "address_components": [
          {
            "long_name": "8C3H+X9",
            "short_name": "8C3H+X9",
            "types": [
              "plus_code"
            ]
          },
          {
            "long_name": "Jasin",
            "short_name": "Jasin",
            "types": [
              "locality",
              "political"
            ]
          },
          {
            "long_name": "Malacca",
            "short_name": "Malacca",
            "types": [
              "administrative_area_level_1",
              "political"
            ]
          },
          {
            "long_name": "Malaysia",
            "short_name": "MY",
            "types": [
              "country",
              "political"
            ]
          }
        ],
        "formatted_address": "8C3H+X9 Jasin, Malacca, Malaysia",
        "geometry": {
          "bounds": {
            "northeast": {
              "lat": 2.305,
              "lng": 102.4285
            },
            "southwest": {
              "lat": 2.304875,
              "lng": 102.428375
            }
          },
          "location": {
            "lat": 2.3049375,
            "lng": 102.4284375
          },
          "location_type": "ROOFTOP",
          "viewport": {
            "northeast": {
              "lat": 2.306286480291502,
              "lng": 102.4297864802915
            },
            "southwest": {
              "lat": 2.303588519708498,
              "lng": 102.4270885197085
            }
          }
        },
        "place_id": "GhIJjZduEoNwAkARUrgehWubWUA",
        "plus_code": {
          "compound_code": "8C3H+X9 Jasin, Malacca, Malaysia",
          "global_code": "6PJ48C3H+X9"
        },
        "types": [
          "plus_code"
        ]
      }
    ]
  },
  {
    "name": "Hospital Jelebu",
    "results": [
      {
        "address_components": [
          {
            "long_name": "X325+4J",
            "short_name": "X325+4J",
            "types": [
              "plus_code"
            ]
          },
          {
            "long_name": "Kuala Klawang",
            "short_name": "Kuala Klawang",
            "types": [
              "locality",
              "political"
            ]
          },
          {
            "long_name": "Negeri Sembilan",
            "short_name": "Negeri Sembilan",
            "types": [
              "administrative_area_level_1",
              "political"
            ]
          },
          {
            "long_name": "Malaysia",
            "short_name": "MY",
            "types": [
              "country",
              "political"
            ]
          }
        ],
        "formatted_address": "X325+4J Kuala Klawang, Negeri Sembilan, Malaysia",
        "geometry": {
          "bounds": {
            "northeast": {
              "lat": 2.950375,
              "lng": 102.059125
            },
            "southwest": {
              "lat": 2.95025,
              "lng": 102.059
            }
          },
          "location": {
            "lat": 2.9503125,
            "lng": 102.0590625
          },
          "location_type": "ROOFTOP",
          "viewport": {
            "northeast": {
              "lat": 2.951661480291502,
              "lng": 102.0604114802915
            },
            "southwest": {
              "lat": 2.948963519708498,
              "lng": 102.0577135197085
            }
          }
        },
        "place_id": "GhIJCtejcD2aB0AR4XoUrseDWUA",
        "plus_code": {
          "compound_code": "X325+4J Kuala Klawang, Negeri Sembilan, Malaysia",
          "global_code": "6PJ4X325+4J"
        },
        "types": [
          "plus_code"
        ]
      }
    ]
  },
  {
    "name": "Hospital Jeli",
    "results": [
      {
        "address_components": [
          {
            "long_name": "PR2V+GP",
            "short_name": "PR2V+GP",
            "types": [
              "plus_code"
            ]
          },
          {
            "long_name": "Jeli",
            "short_name": "Jeli",
            "types": [
              "locality",
              "political"
            ]
          },
          {
            "long_name": "Kelantan",
            "short_name": "Kelantan",
            "types": [
              "administrative_area_level_1",
              "political"
            ]
          },
          {
            "long_name": "Malaysia",
            "short_name": "MY",
            "types": [
              "country",
              "political"
            ]
          }
        ],
        "formatted_address": "PR2V+GP Jeli, Kelantan, Malaysia",
        "geometry": {
          "bounds": {
            "northeast": {
              "lat": 5.701375,
              "lng": 101.844375
            },
            "southwest": {
              "lat": 5.70125,
              "lng": 101.84425
            }
          },
          "location": {
            "lat": 5.701312499999999,
            "lng": 101.8443125
          },
          "location_type": "ROOFTOP",
          "viewport": {
            "northeast": {
              "lat": 5.702661480291502,
              "lng": 101.8456614802915
            },
            "southwest": {
              "lat": 5.699963519708498,
              "lng": 101.8429635197085
            }
          }
        },
        "place_id": "GhIJnxov3STOFkARqMZLNwl2WUA",
        "plus_code": {
          "compound_code": "PR2V+GP Jeli, Kelantan, Malaysia",
          "global_code": "6PQ3PR2V+GP"
        },
        "types": [
          "plus_code"
        ]
      }
    ]
  },
  {
    "name": "Hospital Jempol",
    "results": [
      {
        "address_components": [
          {
            "long_name": "WC34+8C",
            "short_name": "WC34+8C",
            "types": [
              "plus_code"
            ]
          },
          {
            "long_name": "Bandar Seri Jempol",
            "short_name": "Bandar Seri Jempol",
            "types": [
              "locality",
              "political"
            ]
          },
          {
            "long_name": "Negeri Sembilan",
            "short_name": "Negeri Sembilan",
            "types": [
              "administrative_area_level_1",
              "political"
            ]
          },
          {
            "long_name": "Malaysia",
            "short_name": "MY",
            "types": [
              "country",
              "political"
            ]
          },
          {
            "long_name": "72120",
            "short_name": "72120",
            "types": [
              "postal_code"
            ]
          }
        ],
        "formatted_address": "WC34+8C Bandar Seri Jempol, Negeri Sembilan, Malaysia",
        "geometry": {
          "bounds": {
            "northeast": {
              "lat": 2.903375,
              "lng": 102.406125
            },
            "southwest": {
              "lat": 2.90325,
              "lng": 102.406
            }
          },
          "location": {
            "lat": 2.9033125,
            "lng": 102.4060625
          },
          "location_type": "ROOFTOP",
          "viewport": {
            "northeast": {
              "lat": 2.904661480291502,
              "lng": 102.4074114802915
            },
            "southwest": {
              "lat": 2.901963519708498,
              "lng": 102.4047135197085
            }
          }
        },
        "place_id": "GhIJQ4ts5_s5B0ARcmiR7fyZWUA",
        "plus_code": {
          "compound_code": "WC34+8C Bandar Seri Jempol, Negeri Sembilan, Malaysia",
          "global_code": "6PJ4WC34+8C"
        },
        "types": [
          "plus_code"
        ]
      }
    ]
  },
  {
    "name": "Hospital Jengka",
    "results": [
      {
        "address_components": [
          {
            "long_name": "QHF2+7M",
            "short_name": "QHF2+7M",
            "types": [
              "plus_code"
            ]
          },
          {
            "long_name": "Bandar Tun Razak",
            "short_name": "Bandar Tun Razak",
            "types": [
              "locality",
              "political"
            ]
          },
          {
            "long_name": "Pahang",
            "short_name": "Pahang",
            "types": [
              "administrative_area_level_1",
              "political"
            ]
          },
          {
            "long_name": "Malaysia",
            "short_name": "MY",
            "types": [
              "country",
              "political"
            ]
          }
        ],
        "formatted_address": "QHF2+7M Bandar Tun Razak, Pahang, Malaysia",
        "geometry": {
          "bounds": {
            "northeast": {
              "lat": 3.77325,
              "lng": 102.55175
            },
            "southwest": {
              "lat": 3.773125,
              "lng": 102.551625
            }
          },
          "location": {
            "lat": 3.7731875,
            "lng": 102.5516875
          },
          "location_type": "ROOFTOP",
          "viewport": {
            "northeast": {
              "lat": 3.774536480291502,
              "lng": 102.5530364802915
            },
            "southwest": {
              "lat": 3.771838519708497,
              "lng": 102.5503385197085
            }
          }
        },
        "place_id": "GhIJcmiR7XwvDkARK4cW2U6jWUA",
        "plus_code": {
          "compound_code": "QHF2+7M Bandar Tun Razak, Pahang, Malaysia",
          "global_code": "6PM4QHF2+7M"
        },
        "types": [
          "plus_code"
        ]
      }
    ]
  },
  {
    "name": "Hospital Jerantut",
    "results": [
      {
        "address_components": [
          {
            "long_name": "W9H6+P3",
            "short_name": "W9H6+P3",
            "types": [
              "plus_code"
            ]
          },
          {
            "long_name": "Taman Jaya",
            "short_name": "Taman Jaya",
            "types": [
              "political",
              "sublocality",
              "sublocality_level_1"
            ]
          },
          {
            "long_name": "Jerantut",
            "short_name": "Jerantut",
            "types": [
              "locality",
              "political"
            ]
          },
          {
            "long_name": "Pahang",
            "short_name": "Pahang",
            "types": [
              "administrative_area_level_1",
              "political"
            ]
          },
          {
            "long_name": "Malaysia",
            "short_name": "MY",
            "types": [
              "country",
              "political"
            ]
          },
          {
            "long_name": "27000",
            "short_name": "27000",
            "types": [
              "postal_code"
            ]
          }
        ],
        "formatted_address": "W9H6+P3 Taman Jaya, Jerantut, Pahang, Malaysia",
        "geometry": {
          "bounds": {
            "northeast": {
              "lat": 3.929375,
              "lng": 102.36025
            },
            "southwest": {
              "lat": 3.92925,
              "lng": 102.360125
            }
          },
          "location": {
            "lat": 3.9293125,
            "lng": 102.3601875
          },
          "location_type": "ROOFTOP",
          "viewport": {
            "northeast": {
              "lat": 3.930661480291502,
              "lng": 102.3615364802915
            },
            "southwest": {
              "lat": 3.927963519708498,
              "lng": 102.3588385197085
            }
          }
        },
        "place_id": "GhIJrBxaZDtvD0ARZDvfTw2XWUA",
        "plus_code": {
          "compound_code": "W9H6+P3 Taman Jaya, Jerantut, Pahang, Malaysia",
          "global_code": "6PM4W9H6+P3"
        },
        "types": [
          "plus_code"
        ]
      }
    ]
  },
  {
    "name": "Hospital Jitra",
    "results": [
      {
        "address_components": [
          {
            "long_name": "7CH9+GJ",
            "short_name": "7CH9+GJ",
            "types": [
              "plus_code"
            ]
          },
          {
            "long_name": "Jitra",
            "short_name": "Jitra",
            "types": [
              "locality",
              "political"
            ]
          },
          {
            "long_name": "Kedah",
            "short_name": "Kedah",
            "types": [
              "administrative_area_level_1",
              "political"
            ]
          },
          {
            "long_name": "Malaysia",
            "short_name": "MY",
            "types": [
              "country",
              "political"
            ]
          }
        ],
        "formatted_address": "7CH9+GJ Jitra, Kedah, Malaysia",
        "geometry": {
          "bounds": {
            "northeast": {
              "lat": 6.278874999999999,
              "lng": 100.419125
            },
            "southwest": {
              "lat": 6.27875,
              "lng": 100.419
            }
          },
          "location": {
            "lat": 6.2788125,
            "lng": 100.4190625
          },
          "location_type": "ROOFTOP",
          "viewport": {
            "northeast": {
              "lat": 6.280161480291502,
              "lng": 100.4204114802915
            },
            "southwest": {
              "lat": 6.277463519708498,
              "lng": 100.4177135197085
            }
          }
        },
        "place_id": "GhIJL90kBoEdGUARuB6F69EaWUA",
        "plus_code": {
          "compound_code": "7CH9+GJ Jitra, Kedah, Malaysia",
          "global_code": "6PR27CH9+GJ"
        },
        "types": [
          "plus_code"
        ]
      }
    ]
  },
  {
    "name": "Hospital Kajang",
    "results": [
      {
        "address_components": [
          {
            "long_name": "XQVV+44",
            "short_name": "XQVV+44",
            "types": [
              "plus_code"
            ]
          },
          {
            "long_name": "Kajang",
            "short_name": "Kajang",
            "types": [
              "locality",
              "political"
            ]
          },
          {
            "long_name": "Selangor",
            "short_name": "Selangor",
            "types": [
              "administrative_area_level_1",
              "political"
            ]
          },
          {
            "long_name": "Malaysia",
            "short_name": "MY",
            "types": [
              "country",
              "political"
            ]
          }
        ],
        "formatted_address": "XQVV+44 Kajang, Selangor, Malaysia",
        "geometry": {
          "bounds": {
            "northeast": {
              "lat": 2.992875,
              "lng": 101.792875
            },
            "southwest": {
              "lat": 2.99275,
              "lng": 101.79275
            }
          },
          "location": {
            "lat": 2.9928125,
            "lng": 101.7928125
          },
          "location_type": "ROOFTOP",
          "viewport": {
            "northeast": {
              "lat": 2.994161480291502,
              "lng": 101.7941614802915
            },
            "southwest": {
              "lat": 2.991463519708498,
              "lng": 101.7914635197085
            }
          }
        },
        "partial_match": true,
        "place_id": "GhIJ4XoUrkfxB0ARCtejcL1yWUA",
        "plus_code": {
          "compound_code": "XQVV+44 Kajang, Selangor, Malaysia",
          "global_code": "6PJ3XQVV+44"
        },
        "types": [
          "plus_code"
        ]
      }
    ]
  },
  {
    "name": "Hospital Kampar",
    "results": [
      {
        "address_components": [
          {
            "long_name": "8564+QG",
            "short_name": "8564+QG",
            "types": [
              "plus_code"
            ]
          },
          {
            "long_name": "Kampar",
            "short_name": "Kampar",
            "types": [
              "locality",
              "political"
            ]
          },
          {
            "long_name": "Perak",
            "short_name": "Perak",
            "types": [
              "administrative_area_level_1",
              "political"
            ]
          },
          {
            "long_name": "Malaysia",
            "short_name": "MY",
            "types": [
              "country",
              "political"
            ]
          }
        ],
        "formatted_address": "8564+QG Kampar, Perak, Malaysia",
        "geometry": {
          "bounds": {
            "northeast": {
              "lat": 4.311999999999999,
              "lng": 101.156375
            },
            "southwest": {
              "lat": 4.311875,
              "lng": 101.15625
            }
          },
          "location": {
            "lat": 4.3119375,
            "lng": 101.1563125
          },
          "location_type": "ROOFTOP",
          "viewport": {
            "northeast": {
              "lat": 4.313286480291501,
              "lng": 101.1576614802915
            },
            "southwest": {
              "lat": 4.310588519708498,
              "lng": 101.1549635197085
            }
          }
        },
        "place_id": "GhIJgZVDi2w_EUARL90kBgFKWUA",
        "plus_code": {
          "compound_code": "8564+QG Kampar, Perak, Malaysia",
          "global_code": "6PP38564+QG"
        },
        "types": [
          "plus_code"
        ]
      }
    ]
  },
  {
    "name": "Hospital Kanowit",
    "results": [
      {
        "address_components": [
          {
            "long_name": "4532+4W",
            "short_name": "4532+4W",
            "types": [
              "plus_code"
            ]
          },
          {
            "long_name": "Kanowit",
            "short_name": "Kanowit",
            "types": [
              "locality",
              "political"
            ]
          },
          {
            "long_name": "Sarawak",
            "short_name": "Sarawak",
            "types": [
              "administrative_area_level_1",
              "political"
            ]
          },
          {
            "long_name": "Malaysia",
            "short_name": "MY",
            "types": [
              "country",
              "political"
            ]
          }
        ],
        "formatted_address": "4532+4W Kanowit, Sarawak, Malaysia",
        "geometry": {
          "bounds": {
            "northeast": {
              "lat": 2.102875,
              "lng": 112.152375
            },
            "southwest": {
              "lat": 2.10275,
              "lng": 112.15225
            }
          },
          "location": {
            "lat": 2.1028125,
            "lng": 112.1523125
          },
          "location_type": "ROOFTOP",
          "viewport": {
            "northeast": {
              "lat": 2.104161480291502,
              "lng": 112.1536614802915
            },
            "southwest": {
              "lat": 2.101463519708498,
              "lng": 112.1509635197085
            }
          }
        },
        "place_id": "GhIJwvUoXI_SAEARaJHtfL8JXEA",
        "plus_code": {
          "compound_code": "4532+4W Kanowit, Sarawak, Malaysia",
          "global_code": "6PJJ4532+4W"
        },
        "types": [
          "plus_code"
        ]
      }
    ]
  },
  {
    "name": "Hospital Kapit",
    "results": [
      {
        "address_components": [
          {
            "long_name": "6PJJ2W7V+G3",
            "short_name": "6PJJ2W7V+G3",
            "types": [
              "plus_code"
            ]
          }
        ],
        "formatted_address": "6PJJ2W7V+G3",
        "geometry": {
          "bounds": {
            "northeast": {
              "lat": 2.013875,
              "lng": 112.94275
            },
            "southwest": {
              "lat": 2.01375,
              "lng": 112.942625
            }
          },
          "location": {
            "lat": 2.0138125,
            "lng": 112.9426875
          },
          "location_type": "ROOFTOP",
          "viewport": {
            "northeast": {
              "lat": 2.015161480291502,
              "lng": 112.9440364802915
            },
            "southwest": {
              "lat": 2.012463519708498,
              "lng": 112.9413385197085
            }
          }
        },
        "place_id": "GhIJPzVeukkcAEARRbbz_VQ8XEA",
        "plus_code": {
          "global_code": "6PJJ2W7V+G3"
        },
        "types": [
          "plus_code"
        ]
      }
    ]
  },
  {
    "name": "Hospital Kemaman",
    "results": [
      {
        "address_components": [
          {
            "long_name": "6CJC+Q4",
            "short_name": "6CJC+Q4",
            "types": [
              "plus_code"
            ]
          },
          {
            "long_name": "Chukai",
            "short_name": "Chukai",
            "types": [
              "locality",
              "political"
            ]
          },
          {
            "long_name": "Terengganu",
            "short_name": "Terengganu",
            "types": [
              "administrative_area_level_1",
              "political"
            ]
          },
          {
            "long_name": "Malaysia",
            "short_name": "MY",
            "types": [
              "country",
              "political"
            ]
          },
          {
            "long_name": "24000",
            "short_name": "24000",
            "types": [
              "postal_code"
            ]
          }
        ],
        "formatted_address": "6CJC+Q4 Chukai, Terengganu, Malaysia",
        "geometry": {
          "bounds": {
            "northeast": {
              "lat": 4.232,
              "lng": 103.420375
            },
            "southwest": {
              "lat": 4.231875,
              "lng": 103.42025
            }
          },
          "location": {
            "lat": 4.2319375,
            "lng": 103.4203125
          },
          "location_type": "ROOFTOP",
          "viewport": {
            "northeast": {
              "lat": 4.233286480291502,
              "lng": 103.4216614802915
            },
            "southwest": {
              "lat": 4.230588519708498,
              "lng": 103.4189635197085
            }
          }
        },
        "place_id": "GhIJL90kBoHtEEARZmZmZubaWUA",
        "plus_code": {
          "compound_code": "6CJC+Q4 Chukai, Terengganu, Malaysia",
          "global_code": "6PP56CJC+Q4"
        },
        "types": [
          "plus_code"
        ]
      }
    ]
  },
  {
    "name": "Hospital Keningau",
    "results": [
      {
        "address_components": [
          {
            "long_name": "95CJ+3Q",
            "short_name": "95CJ+3Q",
            "types": [
              "plus_code"
            ]
          },
          {
            "long_name": "Kampung Tuarid Taud",
            "short_name": "Kampung Tuarid Taud",
            "types": [
              "political",
              "sublocality",
              "sublocality_level_1"
            ]
          },
          {
            "long_name": "Keningau",
            "short_name": "Keningau",
            "types": [
              "locality",
              "political"
            ]
          },
          {
            "long_name": "Sabah",
            "short_name": "Sabah",
            "types": [
              "administrative_area_level_1",
              "political"
            ]
          },
          {
            "long_name": "Malaysia",
            "short_name": "MY",
            "types": [
              "country",
              "political"
            ]
          },
          {
            "long_name": "89000",
            "short_name": "89000",
            "types": [
              "postal_code"
            ]
          }
        ],
        "formatted_address": "95CJ+3Q Kampung Tuarid Taud, Keningau, Sabah, Malaysia",
        "geometry": {
          "bounds": {
            "northeast": {
              "lat": 5.37025,
              "lng": 116.182
            },
            "southwest": {
              "lat": 5.370125,
              "lng": 116.181875
            }
          },
          "location": {
            "lat": 5.3701875,
            "lng": 116.1819375
          },
          "location_type": "ROOFTOP",
          "viewport": {
            "northeast": {
              "lat": 5.371536480291502,
              "lng": 116.1832864802915
            },
            "southwest": {
              "lat": 5.368838519708497,
              "lng": 116.1805885197085
            }
          }
        },
        "place_id": "GhIJUI2XbhJ7FUARnxov3aQLXUA",
        "plus_code": {
          "compound_code": "95CJ+3Q Kampung Tuarid Taud, Keningau, Sabah, Malaysia",
          "global_code": "6PQR95CJ+3Q"
        },
        "types": [
          "plus_code"
        ]
      }
    ]
  },
  {
    "name": "Hospital Kepala Batas",
    "results": [
      {
        "address_components": [
          {
            "long_name": "GC7P+3J",
            "short_name": "GC7P+3J",
            "types": [
              "plus_code"
            ]
          },
          {
            "long_name": "Kepala Batas",
            "short_name": "Kepala Batas",
            "types": [
              "locality",
              "political"
            ]
          },
          {
            "long_name": "Penang",
            "short_name": "Penang",
            "types": [
              "administrative_area_level_1",
              "political"
            ]
          },
          {
            "long_name": "Malaysia",
            "short_name": "MY",
            "types": [
              "country",
              "political"
            ]
          }
        ],
        "formatted_address": "GC7P+3J Kepala Batas, Penang, Malaysia",
        "geometry": {
          "bounds": {
            "northeast": {
              "lat": 5.51275,
              "lng": 100.436625
            },
            "southwest": {
              "lat": 5.512625,
              "lng": 100.4365
            }
          },
          "location": {
            "lat": 5.5126875,
            "lng": 100.4365625
          },
          "location_type": "ROOFTOP",
          "viewport": {
            "northeast": {
              "lat": 5.514036480291503,
              "lng": 100.4379114802915
            },
            "southwest": {
              "lat": 5.511338519708498,
              "lng": 100.4352135197085
            }
          }
        },
        "place_id": "GhIJokW28_0MFkARPQrXo_AbWUA",
        "plus_code": {
          "compound_code": "GC7P+3J Kepala Batas, Penang, Malaysia",
          "global_code": "6PQ2GC7P+3J"
        },
        "types": [
          "plus_code"
        ]
      }
    ]
  },
  {
    "name": "Hospital Kinabatangan",
    "results": [
      {
        "address_components": [
          {
            "long_name": "HVM2+X5",
            "short_name": "HVM2+X5",
            "types": [
              "plus_code"
            ]
          },
          {
            "long_name": "Pekan Kota Kinabatangan",
            "short_name": "Pekan Kota Kinabatangan",
            "types": [
              "political",
              "sublocality",
              "sublocality_level_1"
            ]
          },
          {
            "long_name": "Kinabatangan",
            "short_name": "Kinabatangan",
            "types": [
              "locality",
              "political"
            ]
          },
          {
            "long_name": "Sabah",
            "short_name": "Sabah",
            "types": [
              "administrative_area_level_1",
              "political"
            ]
          },
          {
            "long_name": "Malaysia",
            "short_name": "MY",
            "types": [
              "country",
              "political"
            ]
          },
          {
            "long_name": "90000",
            "short_name": "90000",
            "types": [
              "postal_code"
            ]
          }
        ],
        "formatted_address": "HVM2+X5 Pekan Kota Kinabatangan, Kinabatangan, Sabah, Malaysia",
        "geometry": {
          "bounds": {
            "northeast": {
              "lat": 5.585,
              "lng": 117.8505
            },
            "southwest": {
              "lat": 5.584874999999999,
              "lng": 117.850375
            }
          },
          "location": {
            "lat": 5.5849375,
            "lng": 117.8504375
          },
          "location_type": "ROOFTOP",
          "viewport": {
            "northeast": {
              "lat": 5.586286480291503,
              "lng": 117.8517864802915
            },
            "southwest": {
              "lat": 5.583588519708498,
              "lng": 117.8490885197085
            }
          }
        },
        "place_id": "GhIJ5dAi2_lWFkARsXJokW12XUA",
        "plus_code": {
          "compound_code": "HVM2+X5 Pekan Kota Kinabatangan, Kinabatangan, Sabah, Malaysia",
          "global_code": "6PQVHVM2+X5"
        },
        "types": [
          "plus_code"
        ]
      }
    ]
  },
  {
    "name": "Hospital Kota Belud",
    "results": [
      {
        "address_components": [
          {
            "long_name": "8CWG+FF",
            "short_name": "8CWG+FF",
            "types": [
              "plus_code"
            ]
          },
          {
            "long_name": "Kota Belud",
            "short_name": "Kota Belud",
            "types": [
              "locality",
              "political"
            ]
          },
          {
            "long_name": "Sabah",
            "short_name": "Sabah",
            "types": [
              "administrative_area_level_1",
              "political"
            ]
          },
          {
            "long_name": "Malaysia",
            "short_name": "MY",
            "types": [
              "country",
              "political"
            ]
          }
        ],
        "formatted_address": "8CWG+FF Kota Belud, Sabah, Malaysia",
        "geometry": {
          "bounds": {
            "northeast": {
              "lat": 6.34625,
              "lng": 116.42625
            },
            "southwest": {
              "lat": 6.346125,
              "lng": 116.426125
            }
          },
          "location": {
            "lat": 6.346187500000001,
            "lng": 116.4261875
          },
          "location_type": "ROOFTOP",
          "viewport": {
            "northeast": {
              "lat": 6.347536480291502,
              "lng": 116.4275364802915
            },
            "southwest": {
              "lat": 6.344838519708498,
              "lng": 116.4248385197085
            }
          }
        },
        "place_id": "GhIJ0iLb-X5iGUARs53vp0YbXUA",
        "plus_code": {
          "compound_code": "8CWG+FF Kota Belud, Sabah, Malaysia",
          "global_code": "6PRR8CWG+FF"
        },
        "types": [
          "plus_code"
        ]
      }
    ]
  },
  {
    "name": "Hospital Kota Marudu",
    "results": [
      {
        "address_components": [
          {
            "long_name": "FQ4G+WC",
            "short_name": "FQ4G+WC",
            "types": [
              "plus_code"
            ]
          },
          {
            "long_name": "Kota Marudu",
            "short_name": "Kota Marudu",
            "types": [
              "locality",
              "political"
            ]
          },
          {
            "long_name": "Sabah",
            "short_name": "Sabah",
            "types": [
              "administrative_area_level_1",
              "political"
            ]
          },
          {
            "long_name": "Malaysia",
            "short_name": "MY",
            "types": [
              "country",
              "political"
            ]
          }
        ],
        "formatted_address": "FQ4G+WC Kota Marudu, Sabah, Malaysia",
        "geometry": {
          "bounds": {
            "northeast": {
              "lat": 6.457375,
              "lng": 116.776125
            },
            "southwest": {
              "lat": 6.45725,
              "lng": 116.776
            }
          },
          "location": {
            "lat": 6.4573125,
            "lng": 116.7760625
          },
          "location_type": "ROOFTOP",
          "viewport": {
            "northeast": {
              "lat": 6.458661480291503,
              "lng": 116.7774114802915
            },
            "southwest": {
              "lat": 6.455963519708498,
              "lng": 116.7747135197085
            }
          }
        },
        "place_id": "GhIJPzVeuknUGUARu0kMAqsxXUA",
        "plus_code": {
          "compound_code": "FQ4G+WC Kota Marudu, Sabah, Malaysia",
          "global_code": "6PRRFQ4G+WC"
        },
        "types": [
          "plus_code"
        ]
      }
    ]
  },
  {
    "name": "Hospital Kota Tinggi",
    "results": [
      {
        "address_components": [
          {
            "long_name": "PVMX+XQ",
            "short_name": "PVMX+XQ",
            "types": [
              "plus_code"
            ]
          },
          {
            "long_name": "Kota Tinggi",
            "short_name": "Kota Tinggi",
            "types": [
              "locality",
              "political"
            ]
          },
          {
            "long_name": "Johor",
            "short_name": "Johor",
            "types": [
              "administrative_area_level_1",
              "political"
            ]
          },
          {
            "long_name": "Malaysia",
            "short_name": "MY",
            "types": [
              "country",
              "political"
            ]
          },
          {
            "long_name": "81900",
            "short_name": "81900",
            "types": [
              "postal_code"
            ]
          }
        ],
        "formatted_address": "PVMX+XQ Kota Tinggi, Johor, Malaysia",
        "geometry": {
          "bounds": {
            "northeast": {
              "lat": 1.735,
              "lng": 103.8995
            },
            "southwest": {
              "lat": 1.734875,
              "lng": 103.899375
            }
          },
          "location": {
            "lat": 1.7349375,
            "lng": 103.8994375
          },
          "location_type": "ROOFTOP",
          "viewport": {
            "northeast": {
              "lat": 1.736286480291502,
              "lng": 103.9007864802915
            },
            "southwest": {
              "lat": 1.733588519708498,
              "lng": 103.8980885197085
            }
          }
        },
        "place_id": "GhIJ_Knx0k3C-z8R8dJNYpD5WUA",
        "plus_code": {
          "compound_code": "PVMX+XQ Kota Tinggi, Johor, Malaysia",
          "global_code": "6PH5PVMX+XQ"
        },
        "types": [
          "plus_code"
        ]
      }
    ]
  },
  {
    "name": "Hospital Kuala Kangsar",
    "results": [
      {
        "address_components": [
          {
            "long_name": "QWFJ+6Q",
            "short_name": "QWFJ+6Q",
            "types": [
              "plus_code"
            ]
          },
          {
            "long_name": "Kuala Kangsar",
            "short_name": "Kuala Kangsar",
            "types": [
              "locality",
              "political"
            ]
          },
          {
            "long_name": "Perak",
            "short_name": "Perak",
            "types": [
              "administrative_area_level_1",
              "political"
            ]
          },
          {
            "long_name": "Malaysia",
            "short_name": "MY",
            "types": [
              "country",
              "political"
            ]
          }
        ],
        "formatted_address": "QWFJ+6Q Kuala Kangsar, Perak, Malaysia",
        "geometry": {
          "bounds": {
            "northeast": {
              "lat": 4.773124999999999,
              "lng": 100.932
            },
            "southwest": {
              "lat": 4.773,
              "lng": 100.931875
            }
          },
          "location": {
            "lat": 4.7730625,
            "lng": 100.9319375
          },
          "location_type": "ROOFTOP",
          "viewport": {
            "northeast": {
              "lat": 4.774411480291502,
              "lng": 100.9332864802915
            },
            "southwest": {
              "lat": 4.771713519708498,
              "lng": 100.9305885197085
            }
          }
        },
        "place_id": "GhIJVg4tsp0XE0ARnxov3aQ7WUA",
        "plus_code": {
          "compound_code": "QWFJ+6Q Kuala Kangsar, Perak, Malaysia",
          "global_code": "6PP2QWFJ+6Q"
        },
        "types": [
          "plus_code"
        ]
      }
    ]
  },
  {
    "name": "Hospital Kuala Kubu Bharu",
    "results": [
      {
        "address_components": [
          {
            "long_name": "HM73+M6",
            "short_name": "HM73+M6",
            "types": [
              "plus_code"
            ]
          },
          {
            "long_name": "Kuala Kubu Bharu",
            "short_name": "Kuala Kubu Bharu",
            "types": [
              "locality",
              "political"
            ]
          },
          {
            "long_name": "Selangor",
            "short_name": "Selangor",
            "types": [
              "administrative_area_level_1",
              "political"
            ]
          },
          {
            "long_name": "Malaysia",
            "short_name": "MY",
            "types": [
              "country",
              "political"
            ]
          }
        ],
        "formatted_address": "HM73+M6 Kuala Kubu Bharu, Selangor, Malaysia",
        "geometry": {
          "bounds": {
            "northeast": {
              "lat": 3.56425,
              "lng": 101.653125
            },
            "southwest": {
              "lat": 3.564125,
              "lng": 101.653
            }
          },
          "location": {
            "lat": 3.5641875,
            "lng": 101.6530625
          },
          "location_type": "ROOFTOP",
          "viewport": {
            "northeast": {
              "lat": 3.565536480291502,
              "lng": 101.6544114802915
            },
            "southwest": {
              "lat": 3.562838519708498,
              "lng": 101.6517135197085
            }
          }
        },
        "place_id": "GhIJ-X5qvHSDDEARnu-nxstpWUA",
        "plus_code": {
          "compound_code": "HM73+M6 Kuala Kubu Bharu, Selangor, Malaysia",
          "global_code": "6PM3HM73+M6"
        },
        "types": [
          "plus_code"
        ]
      }
    ]
  },
  {
    "name": "Hospital Kuala Lipis",
    "results": [
      {
        "address_components": [
          {
            "long_name": "53M4+26",
            "short_name": "53M4+26",
            "types": [
              "plus_code"
            ]
          },
          {
            "long_name": "Kampung Tanjung Lipis",
            "short_name": "Kampung Tanjung Lipis",
            "types": [
              "political",
              "sublocality",
              "sublocality_level_1"
            ]
          },
          {
            "long_name": "Kuala Lipis",
            "short_name": "Kuala Lipis",
            "types": [
              "locality",
              "political"
            ]
          },
          {
            "long_name": "Pahang",
            "short_name": "Pahang",
            "types": [
              "administrative_area_level_1",
              "political"
            ]
          },
          {
            "long_name": "Malaysia",
            "short_name": "MY",
            "types": [
              "country",
              "political"
            ]
          },
          {
            "long_name": "27200",
            "short_name": "27200",
            "types": [
              "postal_code"
            ]
          }
        ],
        "formatted_address": "53M4+26 Kampung Tanjung Lipis, Kuala Lipis, Pahang, Malaysia",
        "geometry": {
          "bounds": {
            "northeast": {
              "lat": 4.182625,
              "lng": 102.055625
            },
            "southwest": {
              "lat": 4.1825,
              "lng": 102.0555
            }
          },
          "location": {
            "lat": 4.1825625,
            "lng": 102.0555625
          },
          "location_type": "ROOFTOP",
          "viewport": {
            "northeast": {
              "lat": 4.183911480291502,
              "lng": 102.0569114802915
            },
            "southwest": {
              "lat": 4.181213519708497,
              "lng": 102.0542135197085
            }
          }
        },
        "place_id": "GhIJbOf7qfG6EEARkxgEVo6DWUA",
        "plus_code": {
          "compound_code": "53M4+26 Kampung Tanjung Lipis, Kuala Lipis, Pahang, Malaysia",
          "global_code": "6PP453M4+26"
        },
        "types": [
          "plus_code"
        ]
      }
    ]
  },
  {
    "name": "Hospital Kuala Lumpur",
    "results": [
      {
        "address_components": [
          {
            "long_name": "5MCX+VH",
            "short_name": "5MCX+VH",
            "types": [
              "plus_code"
            ]
          },
          {
            "long_name": "Kuala Lumpur",
            "short_name": "Kuala Lumpur",
            "types": [
              "locality",
              "political"
            ]
          },
          {
            "long_name": "Federal Territory of Kuala Lumpur",
            "short_name": "Federal Territory of Kuala Lumpur",
            "types": [
              "administrative_area_level_1",
              "political"
            ]
          },
          {
            "long_name": "Malaysia",
            "short_name": "MY",
            "types": [
              "country",
              "political"
            ]
          }
        ],
        "formatted_address": "5MCX+VH Kuala Lumpur, Federal Territory of Kuala Lumpur, Malaysia",
        "geometry": {
          "bounds": {
            "northeast": {
              "lat": 3.17225,
              "lng": 101.699
            },
            "southwest": {
              "lat": 3.172125,
              "lng": 101.698875
            }
          },
          "location": {
            "lat": 3.1721875,
            "lng": 101.6989375
          },
          "location_type": "ROOFTOP",
          "viewport": {
            "northeast": {
              "lat": 3.173536480291502,
              "lng": 101.7002864802915
            },
            "southwest": {
              "lat": 3.170838519708498,
              "lng": 101.6975885197085
            }
          }
        },
        "place_id": "GhIJcD0K16NgCUARrRxaZLtsWUA",
        "plus_code": {
          "compound_code": "5MCX+VH Kuala Lumpur, Federal Territory of Kuala Lumpur, Malaysia",
          "global_code": "6PM35MCX+VH"
        },
        "types": [
          "plus_code"
        ]
      }
    ]
  },
  {
    "name": "Hospital Kuala Nerang",
    "results": [
      {
        "address_components": [
          {
            "long_name": "7J35+3W",
            "short_name": "7J35+3W",
            "types": [
              "plus_code"
            ]
          },
          {
            "long_name": "Kuala Nerang",
            "short_name": "Kuala Nerang",
            "types": [
              "locality",
              "political"
            ]
          },
          {
            "long_name": "Kedah",
            "short_name": "Kedah",
            "types": [
              "administrative_area_level_1",
              "political"
            ]
          },
          {
            "long_name": "Malaysia",
            "short_name": "MY",
            "types": [
              "country",
              "political"
            ]
          }
        ],
        "formatted_address": "7J35+3W Kuala Nerang, Kedah, Malaysia",
        "geometry": {
          "bounds": {
            "northeast": {
              "lat": 6.25275,
              "lng": 100.609875
            },
            "southwest": {
              "lat": 6.252625,
              "lng": 100.60975
            }
          },
          "location": {
            "lat": 6.2526875,
            "lng": 100.6098125
          },
          "location_type": "ROOFTOP",
          "viewport": {
            "northeast": {
              "lat": 6.254036480291503,
              "lng": 100.6111614802915
            },
            "southwest": {
              "lat": 6.251338519708498,
              "lng": 100.6084635197085
            }
          }
        },
        "place_id": "GhIJl24Sg8ACGUARSgwCKwcnWUA",
        "plus_code": {
          "compound_code": "7J35+3W Kuala Nerang, Kedah, Malaysia",
          "global_code": "6PR27J35+3W"
        },
        "types": [
          "plus_code"
        ]
      }
    ]
  },
  {
    "name": "Hospital Kuala Penyu",
    "results": [
      {
        "address_components": [
          {
            "long_name": "HH6P+46",
            "short_name": "HH6P+46",
            "types": [
              "plus_code"
            ]
          },
          {
            "long_name": "Kuala Penyu",
            "short_name": "Kuala Penyu",
            "types": [
              "locality",
              "political"
            ]
          },
          {
            "long_name": "Sabah",
            "short_name": "Sabah",
            "types": [
              "administrative_area_level_1",
              "political"
            ]
          },
          {
            "long_name": "Malaysia",
            "short_name": "MY",
            "types": [
              "country",
              "political"
            ]
          }
        ],
        "formatted_address": "HH6P+46 Kuala Penyu, Sabah, Malaysia",
        "geometry": {
          "bounds": {
            "northeast": {
              "lat": 5.560375,
              "lng": 115.585625
            },
            "southwest": {
              "lat": 5.56025,
              "lng": 115.5855
            }
          },
          "location": {
            "lat": 5.560312499999999,
            "lng": 115.5855625
          },
          "location_type": "ROOFTOP",
          "viewport": {
            "northeast": {
              "lat": 5.561661480291503,
              "lng": 115.5869114802915
            },
            "southwest": {
              "lat": 5.558963519708498,
              "lng": 115.5842135197085
            }
          }
        },
        "place_id": "GhIJ9Shcj8I9FkAR5tAi23nlXEA",
        "plus_code": {
          "compound_code": "HH6P+46 Kuala Penyu, Sabah, Malaysia",
          "global_code": "6PQQHH6P+46"
        },
        "types": [
          "plus_code"
        ]
      }
    ]
  },
  {
    "name": "Hospital Kudat",
    "results": [
      {
        "address_components": [
          {
            "long_name": "WR4Q+M5",
            "short_name": "WR4Q+M5",
            "types": [
              "plus_code"
            ]
          },
          {
            "long_name": "Kudat",
            "short_name": "Kudat",
            "types": [
              "locality",
              "political"
            ]
          },
          {
            "long_name": "Sabah",
            "short_name": "Sabah",
            "types": [
              "administrative_area_level_1",
              "political"
            ]
          },
          {
            "long_name": "Malaysia",
            "short_name": "MY",
            "types": [
              "country",
              "political"
            ]
          },
          {
            "long_name": "89050",
            "short_name": "89050",
            "types": [
              "postal_code"
            ]
          }
        ],
        "formatted_address": "WR4Q+M5 Kudat, Sabah, Malaysia",
        "geometry": {
          "bounds": {
            "northeast": {
              "lat": 6.90675,
              "lng": 116.838
            },
            "southwest": {
              "lat": 6.906625,
              "lng": 116.837875
            }
          },
          "location": {
            "lat": 6.906687499999999,
            "lng": 116.8379375
          },
          "location_type": "ROOFTOP",
          "viewport": {
            "northeast": {
              "lat": 6.908036480291503,
              "lng": 116.8392864802915
            },
            "southwest": {
              "lat": 6.905338519708498,
              "lng": 116.8365885197085
            }
          }
        },
        "place_id": "GhIJm8QgsHKgG0AR5KWbxKA1XUA",
        "plus_code": {
          "compound_code": "WR4Q+M5 Kudat, Sabah, Malaysia",
          "global_code": "6PRRWR4Q+M5"
        },
        "types": [
          "plus_code"
        ]
      }
    ]
  },
  {
    "name": "Hospital Kulim",
    "results": [
      {
        "address_components": [
          {
            "long_name": "9HVF+76",
            "short_name": "9HVF+76",
            "types": [
              "plus_code"
            ]
          },
          {
            "long_name": "Kulim",
            "short_name": "Kulim",
            "types": [
              "locality",
              "political"
            ]
          },
          {
            "long_name": "Kedah",
            "short_name": "Kedah",
            "types": [
              "administrative_area_level_1",
              "political"
            ]
          },
          {
            "long_name": "Malaysia",
            "short_name": "MY",
            "types": [
              "country",
              "political"
            ]
          }
        ],
        "formatted_address": "9HVF+76 Kulim, Kedah, Malaysia",
        "geometry": {
          "bounds": {
            "northeast": {
              "lat": 5.393250000000001,
              "lng": 100.573125
            },
            "southwest": {
              "lat": 5.393125,
              "lng": 100.573
            }
          },
          "location": {
            "lat": 5.3931875,
            "lng": 100.5730625
          },
          "location_type": "ROOFTOP",
          "viewport": {
            "northeast": {
              "lat": 5.394536480291503,
              "lng": 100.5744114802915
            },
            "southwest": {
              "lat": 5.391838519708498,
              "lng": 100.5717135197085
            }
          }
        },
        "place_id": "GhIJtMh2vp-SFUARGARWDq0kWUA",
        "plus_code": {
          "compound_code": "9HVF+76 Kulim, Kedah, Malaysia",
          "global_code": "6PQ29HVF+76"
        },
        "types": [
          "plus_code"
        ]
      }
    ]
  },
  {
    "name": "Hospital Kunak",
    "results": [
      {
        "address_components": [
          {
            "long_name": "M6GJ+RW",
            "short_name": "M6GJ+RW",
            "types": [
              "plus_code"
            ]
          },
          {
            "long_name": "Kunak",
            "short_name": "Kunak",
            "types": [
              "locality",
              "political"
            ]
          },
          {
            "long_name": "Sabah",
            "short_name": "Sabah",
            "types": [
              "administrative_area_level_1",
              "political"
            ]
          },
          {
            "long_name": "Malaysia",
            "short_name": "MY",
            "types": [
              "country",
              "political"
            ]
          }
        ],
        "formatted_address": "M6GJ+RW Kunak, Sabah, Malaysia",
        "geometry": {
          "bounds": {
            "northeast": {
              "lat": 4.677125,
              "lng": 118.232375
            },
            "southwest": {
              "lat": 4.677,
              "lng": 118.23225
            }
          },
          "location": {
            "lat": 4.6770625,
            "lng": 118.2323125
          },
          "location_type": "ROOFTOP",
          "viewport": {
            "northeast": {
              "lat": 4.678411480291502,
              "lng": 118.2336614802915
            },
            "southwest": {
              "lat": 4.675713519708498,
              "lng": 118.2309635197085
            }
          }
        },
        "place_id": "GhIJWmQ730-1EkAR7Xw_Nd6OXUA",
        "plus_code": {
          "compound_code": "M6GJ+RW Kunak, Sabah, Malaysia",
          "global_code": "6PPWM6GJ+RW"
        },
        "types": [
          "plus_code"
        ]
      }
    ]
  },
  {
    "name": "Hospital Labuan",
    "results": [
      {
        "address_components": [
          {
            "long_name": "866J+F2",
            "short_name": "866J+F2",
            "types": [
              "plus_code"
            ]
          },
          {
            "long_name": "Labuan",
            "short_name": "Labuan",
            "types": [
              "locality",
              "political"
            ]
          },
          {
            "long_name": "Labuan Federal Territory",
            "short_name": "Labuan Federal Territory",
            "types": [
              "administrative_area_level_1",
              "political"
            ]
          },
          {
            "long_name": "Malaysia",
            "short_name": "MY",
            "types": [
              "country",
              "political"
            ]
          },
          {
            "long_name": "87000",
            "short_name": "87000",
            "types": [
              "postal_code"
            ]
          }
        ],
        "formatted_address": "866J+F2 Labuan, Labuan Federal Territory, Malaysia",
        "geometry": {
          "bounds": {
            "northeast": {
              "lat": 5.311249999999999,
              "lng": 115.230125
            },
            "southwest": {
              "lat": 5.311125,
              "lng": 115.23
            }
          },
          "location": {
            "lat": 5.3111875,
            "lng": 115.2300625
          },
          "location_type": "ROOFTOP",
          "viewport": {
            "northeast": {
              "lat": 5.312536480291502,
              "lng": 115.2314114802915
            },
            "southwest": {
              "lat": 5.309838519708498,
              "lng": 115.2287135197085
            }
          }
        },
        "place_id": "GhIJLbKd76c-FUARTWIQWLnOXEA",
        "plus_code": {
          "compound_code": "866J+F2 Labuan, Labuan Federal Territory, Malaysia",
          "global_code": "6PQQ866J+F2"
        },