[
  {
    "name": "Hospital Alor Gajah",
    "latitude": 2.3954375,
    "longitude": 102.2020625,
    "globalPlusCode": "6PJ496W2+5R",
    "phone": "06-5562333",
    "website": "http://hag.moh.gov.my",
    "beds": 78,
    "address": "Pejabat Hospital, Hospital Alor Gajah,\nAlor Gajah, Melaka,\n78000 Alor Gajah,\nMelaka",
    "city": "Alor Gajah",
    "state": "Melaka",
    "notes": "",
    "mapsAddress": "Jalan Paya Datok / Simpang, Kampung Tepat, 78000 Alor Gajah, Melaka"
  },
  {
    "name": "Hospital Ampang",
    "latitude": 3.1281875,
    "longitude": 101.7640625,
    "globalPlusCode": "6PM34QH7+7J",
    "phone": "03-42896000",
    "website": "http://hampg.moh.gov.my",
    "beds": 422,
    "address": "Jalan Mewah Utara,\nAmpang, Selangor,\n68000 Ampang,\nSelangor",
    "city": "Ampang",
    "state": "Selangor",
    "notes": "",
    "mapsAddress": "Hospital Ampang, Jalan Mewah Utara, Taman Pandan Mewah, 68000 Ampang Jaya, Selangor"
  },
  {
    "name": "Hospital Bahagia Ulu Kinta",
    "latitude": 4.6755625,
    "longitude": 101.1506875,
    "globalPlusCode": "6PP3M5G2+67",
    "phone": "05-5332333",
    "website": "http://hbuk.moh.gov.my",
    "beds": 2200,
    "address": "Tanjong Rambutan,\nUlu Kinta, Perak,\n31250 Ulu Kinta,\nPerak",
    "city": "Ulu Kinta",
    "state": "Perak",
    "notes": "",
    "mapsAddress": "Jalan Besar, 31250 Tanjung Rambutan, Negeri Perak"
  },
  {
    "name": "Hospital Balik Pulau",
    "latitude": 5.3501875,
    "longitude": 100.2331875,
    "globalPlusCode": "6PQ2962M+37",
    "phone": "04-8669333",
    "website": "http://jknpenang.moh.gov.my/hbp/",
    "beds": 71,
    "address": "Balik Pulau,\nBalik Pulau, Pulau Pinang,\n11000 Balik Pulau,\nPulau Pinang",
    "city": "Balik Pulau",
    "state": "Pulau Pinang",
    "notes": "",
    "mapsAddress": "Jalan Balik Pulau, 11000 Balik Pulau, Pulau Pinang"
  },
  {
    "name": "Hospital Baling",
    "latitude": 5.678812499999999,
    "longitude": 100.9250625,
    "globalPlusCode": "6PQ2MWHG+G2",
    "phone": "04-4701333",
    "website": "http://hbaling.moh.gov.my",
    "beds": 160,
    "address": "Jala Hospital,\nBaling, Kedah,\n09100 Baling,\nKedah",
    "city": "Baling",
    "state": "Kedah",
    "notes": "",
    "mapsAddress": "Baling, 09100 Baling, Kedah"
  },
  {
    "name": "Hospital Banting",
    "latitude": 2.8028125,
    "longitude": 101.4938125,
    "globalPlusCode": "6PJ3RF3V+4G",
    "phone": "03-31871333",
    "website": "",
    "beds": 153,
    "address": "Jalan Sultan Alam Shah,\nBanting, Selangor,\n42700 Banting,\nSelangor",
    "city": "Banting",
    "state": "Selangor",
    "notes": "",
    "mapsAddress": "Jalan Sultan Alam Shah, 42700 Banting, Selangor"
  },
  {
    "name": "Hospital Batu Gajah",
    "latitude": 4.4794375,
    "longitude": 101.0350625,
    "globalPlusCode": "6PP3F2HP+Q2",
    "phone": "05-3663333",
    "website": "http://hbgjh.moh.gov.my",
    "beds": 160,
    "address": "Jalan Changkat,\nBatu Gajah, Perak,\n31000 Batu Gajah,\nPerak",
    "city": "Batu Gajah",
    "state": "Perak",
    "notes": "",
    "mapsAddress": "Hospital Batu Gajah Jalan Changkat Batu Gajah, Jalan Hospital, Batu Gajah, Negeri Perak"
  },
  {
    "name": "Hospital Bau",
    "latitude": 1.4295625,
    "longitude": 110.1426875,
    "globalPlusCode": "6PHGC4HV+R3",
    "phone": "082-763711",
    "website": "",
    "beds": 68,
    "address": "Batu 1 ½,  Jalan Bau-Lundu,\nBau, Sarawak,\n94000 Bau,\nSarawak",
    "city": "Bau",
    "state": "Sarawak",
    "notes": "",
    "mapsAddress": "Batu 1 1/2, Jalan Bau-Lundu, Bau, Kuching, 94000, Bau, Sarawak"
  },
  {
    "name": "Hospital Beaufort",
    "latitude": 5.351437499999999,
    "longitude": 115.7409375,
    "globalPlusCode": "6PQQ9P2R+H9",
    "phone": "087-212333",
    "website": "http://hbeaufort.moh.gov.my",
    "beds": 184,
    "address": "Peti Surat 40,\nBeaufort, Sabah,\n89807 Beaufort,\nSabah",
    "city": "Beaufort",
    "state": "Sabah",
    "notes": "",
    "mapsAddress": "Hospital Beaufort, Peti Surat 40, Beaufort, 89807, Beaufort, Sabah"
  },
  {
    "name": "Hospital Beluran",
    "latitude": 5.8934375,
    "longitude": 117.5554375,
    "globalPlusCode": "6PQVVHV4+95",
    "phone": "089-511233/333",
    "website": "",
    "beds": 46,
    "address": "Karung Berkunci No : 02,\nBeluran, Sabah,\n90109 Beluran,\nSabah",
    "city": "Beluran",
    "state": "Sabah",
    "notes": "",
    "mapsAddress": "Beg Berkunci 2, Beluran, 90109, Beluran, Sabah"
  },
  {
    "name": "Hospital Bentong",
    "latitude": 3.5253125,
    "longitude": 101.9055625,
    "globalPlusCode": "6PM3GWG4+46",
    "phone": "09-2223333",
    "website": "http://hspben.moh.gov.my/",
    "beds": 152,
    "address": "28700 Bentong,\nBentong, Pahang,\n28700 Bentong,\nPahang",
    "city": "Bentong",
    "state": "Pahang",
    "notes": "",
    "mapsAddress": "Jalan Padang, 28700 Bentong, Pahang"
  },
  {
    "name": "Hospital Besut",
    "latitude": 5.7290625,
    "longitude": 102.4915625,
    "globalPlusCode": "6PQ4PFHR+JJ",
    "phone": "09-6971130/09-6971200",
    "website": "",
    "beds": 140,
    "address": "Jalan Pasir Akar, Jerteh,\nBesut, Terengganu,\n22000 Besut,\nTerengganu",
    "city": "Besut",
    "state": "Terengganu",
    "notes": "",
    "mapsAddress": "Jerteh, Kampung Alor Keladi, Terengganu, 22000 Besut"
  },
  {
    "name": "Hospital Betong",
    "latitude": 1.3739375,
    "longitude": 111.5738125,
    "globalPlusCode": "6PHH9HFF+HG",
    "phone": "083-472821",
    "website": "",
    "beds": 48,
    "address": "Jalan Betong,\nBetong, Sarawak,\n95707 Betong,\nSarawak",
    "city": "Betong",
    "state": "Sarawak",
    "notes": "",
    "mapsAddress": "Betong, 95700 Betong, Sarawak"
  },
  {
    "name": "Hospital Bintulu",
    "latitude": 3.2296875,
    "longitude": 113.1010625,
    "globalPlusCode": "6PMM64H2+VC",
    "phone": "086-255899",
    "website": "http://hbtu.moh.gov.my",
    "beds": 284,
    "address": "Jalan Nyabau,\nBintulu, Sarawak,\n97000 Bintulu,\nSarawak",
    "city": "Bintulu",
    "state": "Sarawak",
    "notes": "",
    "mapsAddress": "Jalan Bkt Nyabau, 97000 Bintulu, Sarawak"
  },
  {
    "name": "Hospital Bukit Mertajam",
    "latitude": 5.3593125,
    "longitude": 100.4640625,
    "globalPlusCode": "6PQ29F57+PJ",
    "phone": "04-5497333",
    "website": "http://jknpenang.moh.gov.my/hbm/",
    "beds": 242,
    "address": "Jalan Kulim, Bukit Mertajam,\nBukit Mertajam, Pulau Pinang,\n14000 Bukit Mertajam,\nPulau Pinang",
    "city": "Bukit Mertajam",
    "state": "Pulau Pinang",
    "notes": "",
    "mapsAddress": "Jalan Kulim, 14000 Bukit Mertajam, Pulau Pinang"
  },
  {
    "name": "Hospital Changkat Melintang",
    "latitude": 4.312937499999999,
    "longitude": 100.9104375,
    "globalPlusCode": "6PP28W76+55",
    "phone": "05-3761333",
    "website": "",
    "beds": 50,
    "address": "Lambor Kanan,Parit,\nBota, Perak,\n32900 Bota,\nPerak",
    "city": "Bota",
    "state": "Perak",
    "notes": "",
    "mapsAddress": "Hospital Changkat Melintang Lambor Kanan,Parit Perak 32900, 32600 Bota, Perak"
  },
  {
    "name": "Hospital Dalat",
    "latitude": 2.7451875,
    "longitude": 111.9460625,
    "globalPlusCode": "6PJHPWWW+3C",
    "phone": "084-863213",
    "website": "",
    "beds": 8,
    "address": "Jalan Oya-Dalat,\nDalat, Sarawak,\n96300 Dalat,\nSarawak",
    "city": "Dalat",
    "state": "Sarawak",
    "notes": "",
    "mapsAddress": "Jalan Oya - Dalat, Pekan Dalat, 96300 Dalat, Sarawak"
  },
  {
    "name": "Hospital Daro",
    "latitude": 2.5218125,
    "longitude": 111.4131875,
    "globalPlusCode": "6PJHGCC7+P7",
    "phone": "084-823620",
    "website": "http://hdaro.moh.gov.my",
    "beds": 46,
    "address": "Jalan Itol,\nDaro, Sarawak,\n96200 Daro,\nSarawak",
    "city": "Daro",
    "state": "Sarawak",
    "notes": "",
    "mapsAddress": "Jalan Itol Daro, Sarawak 96200 Daro Sarawak"
  },
  {
    "name": "Hospital Duchess Of Kent",
    "latitude": 5.8585625,
    "longitude": 118.1034375,
    "globalPlusCode": "6PQWV453+C9",
    "phone": "089-248 600                     Talian_Kecemasan:089-255 022",
    "website": "http://hdok.moh.gov.my",
    "beds": 400,
    "address": "KM 3.2, Jalan Utara,\nSandakan, Sabah,\n90000 Sandakan,\nSabah",
    "city": "Sandakan",
    "state": "Sabah",
    "notes": "",
    "mapsAddress": "KM 3.2, Jalan Utara, 90000 Sandakan, Sabah"
  },
  {
    "name": "Hospital Dungun",
    "latitude": 4.751937499999999,
    "longitude": 103.4148125,
    "globalPlusCode": "6PP5QC27+QW",
    "phone": "09-8483333",
    "website": "",
    "beds": 100,
    "address": "Hospital Dungun,\nDungun, Terengganu,\n23000 Dungun,\nTerengganu",
    "city": "Dungun",
    "state": "Terengganu",
    "notes": "",
    "mapsAddress": "Jalan Paka, 23000 Kuala Dungun, Terengganu"
  },
  {
    "name": "Hospital Enche' Besar Hajjah Kalsom, Kluang",
    "latitude": 2.0080625,
    "longitude": 103.3470625,
    "globalPlusCode": "6PJ5285W+6R",
    "phone": "07-7787000",
    "website": "",
    "beds": 244,
    "address": "KM 5, Jln Kota Tinggi,\n86000 Kluang,\nJohor",
    "city": "Kluang",
    "state": "Johor",
    "notes": "",
    "mapsAddress": "Hospital Enche' Besar Hajjah Khalsom, Kluang KM 5, 91, 86000 Kluang, Johor"
  },
  {
    "name": "Hospital Gerik",
    "latitude": 5.4290625,
    "longitude": 101.1279375,
    "globalPlusCode": "6PQ3C4HH+J5",
    "phone": "05-7911333",
    "website": "http://hgerik.moh.gov.my",
    "beds": 75,
    "address": "Jalan Intan,\nGrik, Perak,\n33000 Grik,\nPerak",
    "city": "Grik",
    "state": "Perak",
    "notes": "",
    "mapsAddress": "Jalan Intan, Pekan Gerik, 33300 Gerik, Negeri Perak"
  },
  {
    "name": "Hospital Gua Musang",
    "latitude": 4.8596875,
    "longitude": 101.9548125,
    "globalPlusCode": "6PP3VX53+VW",
    "phone": "09-9121133",
    "website": "",
    "beds": 34,
    "address": "Bandar Baru,\nGua Musang, Kelantan,\n18300 Gua Musang,\nKelantan",
    "city": "Gua Musang",
    "state": "Kelantan",
    "notes": "",
    "mapsAddress": "Bandar Baru Gua Musang, 18300 Gua Musang, Kelantan"
  },
  {
    "name": "Hospital Hulu Terengganu",
    "latitude": 5.0731875,
    "longitude": 103.0448125,
    "globalPlusCode": "6PQ532FV+7W",
    "phone": "09-6813333/6813120",
    "website": "",
    "beds": 119,
    "address": "Batu 23, Jalan Kuala Berang,\nKuala Berang, Terengganu,\n21700 Kuala Berang,\nTerengganu",
    "city": "Kuala Berang",
    "state": "Terengganu",
    "notes": "",
    "mapsAddress": "Batu 23, Jalan Kuala Berang, Kampung Batu 23, 21700 Kuala Berang, Terengganu"
  },
  {
    "name": "Hospital Jasin",
    "latitude": 2.3049375,
    "longitude": 102.4284375,
    "globalPlusCode": "6PJ48C3H+X9",
    "phone": "06-5294262",
    "website": "http://hjasin.moh.gov.my/",
    "beds": 76,
    "address": "77000 Jasin,\nJasin, Melaka,\n77000 Jasin,\nMelaka",
    "city": "Jasin",
    "state": "Melaka",
    "notes": "",
    "mapsAddress": "Hospital Utama, 77000 Jasin, Melaka"
  },
  {
    "name": "Hospital Jelebu",
    "latitude": 2.9503125,
    "longitude": 102.0590625,
    "globalPlusCode": "6PJ4X325+4J",
    "phone": "06-6136355",
    "website": "",
    "beds": 76,
    "address": "71600 Jelebu,\nJelebu, Negeri Sembilan,\n71600 Jelebu,\nNegeri Sembilan",
    "city": "Jelebu",
    "state": "Negeri Sembilan",
    "notes": "",
    "mapsAddress": "Taman Bukit Petaling, 71600 Kuala Klawang, Negeri Sembilan"
  },
  {
    "name": "Hospital Jeli",
    "latitude": 5.701312499999999,
    "longitude": 101.8443125,
    "globalPlusCode": "6PQ3PR2V+GP",
    "phone": "09-9440092",
    "website": "",
    "beds": 24,
    "address": "17600 Jeli,\nJeli, Kelantan,\n17600 Jeli,\nKelantan",
    "city": "Jeli",
    "state": "Kelantan",
    "notes": "",
    "mapsAddress": "Bandar Jeli, 17600 Jeli, Kelantan"
  },
  {
    "name": "Hospital Jempol",
    "latitude": 2.9033125,
    "longitude": 102.4060625,
    "globalPlusCode": "6PJ4WC34+8C",
    "phone": "06-4592000",
    "website": "",
    "beds": 108,
    "address": "Bandar Seri Jempol,\nBandar Seri Jempol, Negeri Sembilan,\n72120 Bandar Seri Jempol,\nNegeri Sembilan",
    "city": "Bandar Seri Jempol",
    "state": "Negeri Sembilan",
    "notes": "",
    "mapsAddress": "Hospital Jempol, 72120 Bandar Seri Jempol, Negeri Sembilan"
  },
  {
    "name": "Hospital Jengka",
    "latitude": 3.7731875,
    "longitude": 102.5516875,
    "globalPlusCode": "6PM4QHF2+7M",
    "phone": "09-4662333",
    "website": "",
    "beds": 70,
    "address": "26400 Bandar Jengka,\nMaran, Pahang,\n26400 Maran,\nPahang",
    "city": "Maran",
    "state": "Pahang",
    "notes": "",
    "mapsAddress": "Hospital Jengka, Bandar Jengka Maran, 26400 Bandar Tun Razak, Pahang"
  },
  {
    "name": "Hospital Jerantut",
    "latitude": 3.9293125,
    "longitude": 102.3601875,
    "globalPlusCode": "6PM4W9H6+P3",
    "phone": "09-2663333",
    "website": "http://hjerantut.moh.gov.my",
    "beds": 77,
    "address": "27000 Jerantut,\nJerantut, Pahang,\n27000 Jerantut,\nPahang",
    "city": "Jerantut",
    "state": "Pahang",
    "notes": "",
    "mapsAddress": "Taman Jaya, 27000 Jerantut, Pahang"
  },
  {
    "name": "Hospital Jitra",
    "latitude": 6.2788125,
    "longitude": 100.4190625,
    "globalPlusCode": "6PR27CH9+GJ",
    "phone": "04-9174333",
    "website": "http://hjitra.moh.gov.my",
    "beds": 103,
    "address": "Jalan Changlun, Jitra Kedah,\nJitra, Kedah,\n06000 Jitra,\nKedah",
    "city": "Jitra",
    "state": "Kedah",
    "notes": "",
    "mapsAddress": "Pekan Jitra, 06000 Jitra, Kedah"
  },
  {
    "name": "Hospital Kajang",
    "latitude": 2.9928125,
    "longitude": 101.7928125,
    "globalPlusCode": "6PJ3XQVV+44",
    "phone": "03-89133333",
    "website": "http://hkjg.moh.gov.my",
    "beds": 306,
    "address": "Jalan Semenyih,\nKajang, Selangor,\n43000 Kajang,\nSelangor",
    "city": "Kajang",
    "state": "Selangor",
    "notes": "",
    "mapsAddress": "4, Jalan Semenyih, Bandar Kajang, 43000 Kajang, Selangor"
  },
  {
    "name": "Hospital Kampar",
    "latitude": 4.3119375,
    "longitude": 101.1563125,
    "globalPlusCode": "6PP38564+QG",
    "phone": "05-4653333",
    "website": "http://hkampar.moh.gov.my",
    "beds": 90,
    "address": "Jalan Hospital,\nKampar, Perak,\n31500 Kampar,\nPerak",
    "city": "Kampar",
    "state": "Perak",
    "notes": "",
    "mapsAddress": "Jalan Hospital, Kampung Masjid, 31900 Kampar, Negeri Perak"
  },
  {
    "name": "Hospital Kanowit",
    "latitude": 2.1028125,
    "longitude": 112.1523125,
    "globalPlusCode": "6PJJ4532+4W",
    "phone": "084-752333",
    "website": "http://hkanowit.moh.gov.my",
    "beds": 100,
    "address": "Jalan Kanowit/ Durin,\nKanowit, Sarawak,\n96700 Kanowit,\nSarawak",
    "city": "Kanowit",
    "state": "Sarawak",
    "notes": "",
    "mapsAddress": "Jalan Kanowit / Durin, 96700 Kanowit, Sarawak"
  },
  {
    "name": "Hospital Kapit",
    "latitude": 2.0138125,
    "longitude": 112.9426875,
    "globalPlusCode": "6PJJ2W7V+G3",
    "phone": "084-796333",
    "website": "http://hkapit.moh.gov.my",
    "beds": 134,
    "address": "Jalan Memora,\nKapit, Sarawak,\n96800 Kapit,\nSarawak",
    "city": "Kapit",
    "state": "Sarawak",
    "notes": "",
    "mapsAddress": "Jalan Mamora, 96800 Kapit, Sarawak"
  },
  {
    "name": "Hospital Kemaman",
    "latitude": 4.2319375,
    "longitude": 103.4203125,
    "globalPlusCode": "6PP56CJC+Q4",
    "phone": "09-8513333",
    "website": "http://hkemaman.moh.gov.my",
    "beds": 116,
    "address": "Jalan Da' Omar, Cukai,\nKemaman, Terengganu,\n24000 Kemaman,\nTerengganu",
    "city": "Kemaman",
    "state": "Terengganu",
    "notes": "",
    "mapsAddress": "Jalan Da' Omar, Cukai, 24000 Kemaman, Terengganu"
  },
  {
    "name": "Hospital Keningau",
    "latitude": 5.3701875,
    "longitude": 116.1819375,
    "globalPlusCode": "6PQR95CJ+3Q",
    "phone": "087-313000",
    "website": "http://hkgu.moh.gov.my",
    "beds": 212,
    "address": "Peti Surat 11,\nKeningau, Sabah,\n89007 Keningau,\nSabah",
    "city": "Keningau",
    "state": "Sabah",
    "notes": "",
    "mapsAddress": "Peti Surat, 11, 89007 Keningau, Sabah"
  },
  {
    "name": "Hospital Kepala Batas",
    "latitude": 5.5126875,
    "longitude": 100.4365625,
    "globalPlusCode": "6PQ2GC7P+3J",
    "phone": "04-5793333",
    "website": "http:// jknpenang.moh.gov.my/hkb/",
    "beds": 108,
    "address": "Jalan Bertam, Kepala Batas,\nKepala Batas, Pulau Pinang,\n13200 Kepala Batas,\nPulau Pinang",
    "city": "Kepala Batas",
    "state": "Pulau Pinang",
    "notes": "",
    "mapsAddress": "Jalan Bertam 2, 13200 Kepala Batas, Pulau Pinang"
  },
  {
    "name": "Hospital Kinabatangan",
    "latitude": 5.5849375,
    "longitude": 117.8504375,
    "globalPlusCode": "6PQVHVM2+X5",
    "phone": "089-561858",
    "website": "http://hkbtgn.moh.gov.my",
    "beds": 68,
    "address": "W.D.T 200,\nKinabatangan, Sabah,\n90020 Kinabatangan,\nSabah",
    "city": "Kinabatangan",
    "state": "Sabah",
    "notes": "",
    "mapsAddress": "W.D.T 200 Kinabatangan,, 90200 Kinabatangan, Sabah"
  },
  {
    "name": "Hospital Kota Belud",
    "latitude": 6.346187500000001,
    "longitude": 116.4261875,
    "globalPlusCode": "6PRR8CWG+FF",
    "phone": "088-976333",
    "website": "http://hkotabelud.moh.gov.my",
    "beds": 172,
    "address": "Peti Surat 159,\nKota Belud, Sabah,\n89158 Kota Belud,\nSabah",
    "city": "Kota Belud",
    "state": "Sabah",
    "notes": "",
    "mapsAddress": "jalan hospital, 89158 Kota Belud, Sabah"
  },
  {
    "name": "Hospital Kota Marudu",
    "latitude": 6.4573125,
    "longitude": 116.7760625,
    "globalPlusCode": "6PRRFQ4G+WC",
    "phone": "088-661984",
    "website": "http://hkm.moh.gov.my",
    "beds": 97,
    "address": "Peti Surat 255,\nKota Marudu, Sabah,\n89108 Kota Marudu,\nSabah",
    "city": "Kota Marudu",
    "state": "Sabah",
    "notes": "",
    "mapsAddress": "Peti Surat 255, 89100 Kota Marudu, Sabah"
  },
  {
    "name": "Hospital Kota Tinggi",
    "latitude": 1.7349375,
    "longitude": 103.8994375,
    "globalPlusCode": "6PH5PVMX+XQ",
    "phone": "07-8831131/32",
    "website": "http://hkotatinggi.moh.gov.my",
    "beds": 158,
    "address": "Jalan Tun Habah,\nKota Tinggi, Johor,\n81900 Kota Tinggi,\nJohor",
    "city": "Kota Tinggi",
    "state": "Johor",
    "notes": "",
    "mapsAddress": "Jalan Tun Habab, Pekan Kota Tinggi, 81900 Kota Tinggi, Johor"
  },
  {
    "name": "Hospital Kuala Kangsar",
    "latitude": 4.7730625,
    "longitude": 100.9319375,
    "globalPlusCode": "6PP2QWFJ+6Q",
    "phone": "05-7763333",
    "website": "",
    "beds": 136,
    "address": "Jalan Sultan Idris Shah 1,\nKuala Kangsar, Perak,\n33000 Kuala Kangsar,\nPerak",
    "city": "Kuala Kangsar",
    "state": "Perak",
    "notes": "",
    "mapsAddress": "1648 Jalan Sultan Idris Shah, 1, Taman Mawar, 33000 Kuala Kangsar, Negeri Perak"
  },
  {
    "name": "Hospital Kuala Kubu Bharu",
    "latitude": 3.5641875,
    "longitude": 101.6530625,
    "globalPlusCode": "6PM3HM73+M6",
    "phone": "03-60641333",
    "website": "http://hkkb.moh.gov.my",
    "beds": 120,
    "address": "Jalan Hospital,\nKuala Kubu Bharu, Selangor,\n44000 Kuala Kubu Bharu,\nSelangor",
    "city": "Kuala Kubu Bharu",
    "state": "Selangor",
    "notes": "",
    "mapsAddress": "Jalan Hospital, Pekan Kuala Kubu Bharu, 44000 Kuala Kubu Baru, Selangor"
  },
  {
    "name": "Hospital Kuala Lipis",
    "latitude": 4.1825625,
    "longitude": 102.0555625,
    "globalPlusCode": "6PP453M4+26",
    "phone": "09-3123333",
    "website": "",
    "beds": 128,
    "address": "27200 K.Lipis,\nKuala Lipis, Pahang,\n27200 Kuala Lipis,\nPahang",
    "city": "Kuala Lipis",
    "state": "Pahang",
    "notes": "",
    "mapsAddress": "27200 Kuala Lipis, Pahang"
  },
  {
    "name": "Hospital Kuala Lumpur",
    "latitude": 3.1721875,
    "longitude": 101.6989375,
    "globalPlusCode": "6PM35MCX+VH",
    "phone": "03-26155555",
    "website": "http://hkl.moh.gov.my/",
    "beds": 2131,
    "address": "Jalan Pahang,\nKuala Lumpur, WP Kuala Lumpur,\n50586 Kuala Lumpur,\nWP Kuala Lumpur",
    "city": "Kuala Lumpur",
    "state": "WP Kuala Lumpur",
    "notes": "",
    "mapsAddress": "23, Jalan Pahang, 50586 Kuala Lumpur, Wilayah Persekutuan Kuala Lumpur"
  },
  {
    "name": "Hospital Kuala Nerang",
    "latitude": 6.2526875,
    "longitude": 100.6098125,
    "globalPlusCode": "6PR27J35+3W",
    "phone": "04-7867333",
    "website": "http://hknerang.moh.gov.my",
    "beds": 72,
    "address": "Kuala Nerang,\nKuala Nerang, Kedah,\n06300 Kuala Nerang,\nKedah",
    "city": "Kuala Nerang",
    "state": "Kedah",
    "notes": "",
    "mapsAddress": "Kuala Nerang, 06300 Kuala Nerang, Kedah"
  },
  {
    "name": "Hospital Kuala Penyu",
    "latitude": 5.560312499999999,
    "longitude": 115.5855625,
    "globalPlusCode": "6PQQHH6P+46",
    "phone": "087-853100",
    "website": "http://hspkpyu.moh.gov.my",
    "beds": 48,
    "address": "W.D.T. 35,\nKuala Penyu, Sabah,\n89740 Kuala Penyu,\nSabah",
    "city": "Kuala Penyu",
    "state": "Sabah",
    "notes": "",
    "mapsAddress": "89740 Kuala Penyu, Sabah"
  },
  {
    "name": "Hospital Kudat",
    "latitude": 6.906687499999999,
    "longitude": 116.8379375,
    "globalPlusCode": "6PRRWR4Q+M5",
    "phone": "088-613333",
    "website": "",
    "beds": 180,
    "address": "Peti Surat 22,\nKudat, Sabah,\n89057 Kudat,\nSabah",
    "city": "Kudat",
    "state": "Sabah",
    "notes": "",
    "mapsAddress": "Peti Surat 22, 89057 Kudat, Sabah"
  },
  {
    "name": "Hospital Kulim",
    "latitude": 5.3931875,
    "longitude": 100.5730625,
    "globalPlusCode": "6PQ29HVF+76",
    "phone": "04-4272733",
    "website": "http://hkulim.moh.gov.my/",
    "beds": 281,
    "address": "Jalan Mahang, Kulim,\nKulim, Kedah,\n09000 Kulim,\nKedah",
    "city": "Kulim",
    "state": "Kedah",
    "notes": "",
    "mapsAddress": "Lebuh Taman Perindustrian, Taman Kulim Hi-tech, 09090 Kulim, Kedah"
  },
  {
    "name": "Hospital Kunak",
    "latitude": 4.6770625,
    "longitude": 118.2323125,
    "globalPlusCode": "6PPWM6GJ+RW",
    "phone": "089-894100",
    "website": "http://hknk.moh.gov.my",
    "beds": 48,
    "address": "W.D.T. 150,\nKunak, Sabah,\n91209 Kunak,\nSabah",
    "city": "Kunak",
    "state": "Sabah",
    "notes": "",
    "mapsAddress": "W.D.T 150, Pekan Kunak, 91209 Kunak, Sabah"
  },
  {
    "name": "Hospital Labuan",
    "latitude": 5.3111875,
    "longitude": 115.2300625,
    "globalPlusCode": "6PQQ866J+F2",
    "phone": "087-423922/ 423919",
    "website": "",
    "beds": 109,
    "address": "Peti Surat 81006,\nLabuan, WP Labuan,\n87020 Labuan,\nWP Labuan",
    "city": "Labuan",
    "state": "WP Labuan",
    "notes": "",
    "mapsAddress": "Peti Surat 81006 Labuan, WP Labuan"
  },
  {
    "name": "Hospital Lahad Datu",
    "latitude": 5.0266875,
    "longitude": 118.3136875,
    "globalPlusCode": "6PQW28G7+MF",
    "phone": "089-895111",
    "website": "http://hldu.moh.gov.my",
    "beds": 268,
    "address": "Peti Surat 60065,\nLahad Datu, Sabah,\n91110 Lahad Datu,\nSabah",
    "city": "Lahad Datu",
    "state": "Sabah",
    "notes": "",
    "mapsAddress": "Jln Lahad Datu - Tawau, 91100 Lahad Datu, Sabah"
  },
  {
    "name": "Hospital Langkawi",
    "latitude": 6.324812499999999,
    "longitude": 99.79843749999999,
    "globalPlusCode": "6MRX8QFX+W9",
    "phone": "04-9665333",
    "website": "http://hlangkawi.moh.gov.my",
    "beds": 110,
    "address": "Bukit Tekuh,Jalan Padang Maksirat,\nLangkawi, Kedah,\n07000 Langkawi,\nKedah",
    "city": "Langkawi",
    "state": "Kedah",
    "notes": "Name is different in maps and in moh table",
    "mapsAddress": "Jalan Bukit, 07000 Langkawi, Kedah"
  },
  {
    "name": "Hospital Lawas",
    "latitude": 4.8544375,
    "longitude": 115.4045625,
    "globalPlusCode": "6PPQVC33+QR",
    "phone": "085-283781",
    "website": "",
    "beds": 46,
    "address": "Jalan Hospital,\nLawas, Sarawak,\n98850 Lawas,\nSarawak",
    "city": "Lawas",
    "state": "Sarawak",
    "notes": "",
    "mapsAddress": "Jalan Hospital, 98850 Lawas, Sarawak"
  },
  {
    "name": "Hospital Limbang",
    "latitude": 4.764312500000001,
    "longitude": 115.0190625,
    "globalPlusCode": "6PPQQ279+PJ",
    "phone": "085-211200",
    "website": "http://hlimbang.moh.gov.my",
    "beds": 100,
    "address": "Jalan Pandaruan,\nLimbang, Sarawak,\n98700 Limbang,\nSarawak",
    "city": "Limbang",
    "state": "Sarawak",
    "notes": "",
    "mapsAddress": "Jalan Pandaruan, 98700 Limbang, Sarawak"
  },
  {
    "name": "Hospital Lundu",
    "latitude": 1.6755625,
    "longitude": 109.8528125,
    "globalPlusCode": "6PHFMVG3+64",
    "phone": "082-735311",
    "website": "",
    "beds": 46,
    "address": "Jalan Sekambal,\nLundu, Sarawak,\n94500 Lundu,\nSarawak",
    "city": "Lundu",
    "state": "Sarawak",
    "notes": "",
    "mapsAddress": "94500 Lundu, Sarawak"
  },
  {
    "name": "Hospital Machang",
    "latitude": 5.7631875,
    "longitude": 102.2258125,
    "globalPlusCode": "6PQ4Q67G+78",
    "phone": "09-9741300/301",
    "website": "http://hmachang.moh.gov.my/",
    "beds": 90,
    "address": "Jalan Pasir Puteh,\nMachang, Kelantan,\n18500 Machang,\nKelantan",
    "city": "Machang",
    "state": "Kelantan",
    "notes": "",
    "mapsAddress": "D18 Jalan Pasir Puteh, Kampung Bukit Tiu, 18500 Machang, Kelantan"
  },
  {
    "name": "Hospital Marudi",
    "latitude": 4.1784375,
    "longitude": 114.3253125,
    "globalPlusCode": "6PPP58HG+94",
    "phone": "085-755511",
    "website": "",
    "beds": 54,
    "address": "Jalan Pungor,\nMarudi, Sarawak,\n98050 Marudi,\nSarawak",
    "city": "Marudi",
    "state": "Sarawak",
    "notes": "",
    "mapsAddress": "Hospital Marudi, Jalan Pungor, Marudi, 98050, Baram, Sarawak"
  },
  {
    "name": "Hospital Melaka",
    "latitude": 2.2189375,
    "longitude": 102.2615625,
    "globalPlusCode": "6PJ46796+HJ",
    "phone": "06-2892344",
    "website": "http://hmelaka.moh.gov.my/",
    "beds": 1091,
    "address": "Jalan Mufti Haji Khalil,\nMelaka, Melaka,\n75400 Melaka,\nMelaka",
    "city": "Melaka",
    "state": "Melaka",
    "notes": "",
    "mapsAddress": "Jalan Mufti Haji Khalil, 75400 Melaka"
  },
  {
    "name": "Hospital Mersing",
    "latitude": 2.4294375,
    "longitude": 103.8453125,
    "globalPlusCode": "6PJ5CRHW+Q4",
    "phone": "07-7993333",
    "website": "http://hmersing.moh.gov.my",
    "beds": 55,
    "address": "Jalan Ismail,\nMersing, Johor,\n86800 Mersing,\nJohor",
    "city": "Mersing",
    "state": "Johor",
    "notes": "",
    "mapsAddress": "Jalan Ismail, Mersing Kechil, 86800 Mersing, Johor"
  },
  {
    "name": "Hospital Mesra Bukit Padang",
    "latitude": 5.9504375,
    "longitude": 116.1053125,
    "globalPlusCode": "6PQRX424+54",
    "phone": "088-240984",
    "website": "http://hmbp.moh.gov.my",
    "beds": 270,
    "address": "Peti Surat 11342,\nKota Kinabalu, Sabah,\n88815 Kota Kinabalu,\nSabah",
    "city": "Kota Kinabalu",
    "state": "Sabah",
    "notes": "",
    "mapsAddress": "PS 11342, Bukit Padang, Kota Kinabalu, Sabah, 88815 Kota Kinabalu"
  },
  {
    "name": "Hospital Miri",
    "latitude": 4.3744375,
    "longitude": 113.9991875,
    "globalPlusCode": "6PPM9XFX+QM",
    "phone": "085-420033",
    "website": "http://hmiri.moh.gov.my",
    "beds": 333,
    "address": "Jalan Cahaya,\nMiri, Sarawak,\n98000 Miri,\nSarawak",
    "city": "Miri",
    "state": "Sarawak",
    "notes": "",
    "mapsAddress": "Jalan Cahaya, 98000 Miri, Sarawak"
  },
  {
    "name": "Hospital Muadzam Shah",
    "latitude": 3.0538125,
    "longitude": 103.0909375,
    "globalPlusCode": "6PM5333R+G9",
    "phone": "09-4523333",
    "website": "",
    "beds": 49,
    "address": "26700 Muadzam Shah,\nRompin, Pahang,\n26700 Rompin,\nPahang",
    "city": "Rompin",
    "state": "Pahang",
    "notes": "postcode is different",
    "mapsAddress": "Jalan Kemajuan, 26810 Muadzam Shah, Pahang"
  },
  {
    "name": "Hospital Mukah",
    "latitude": 2.9008125,
    "longitude": 112.0763125,
    "globalPlusCode": "6PJJW32G+8G",
    "phone": "084-871333",
    "website": "",
    "beds": 80,
    "address": "Jalan Haji Mohamed Pauzi,\nMukah, Sarawak,\n96400 Mukah,\nSarawak",
    "city": "Mukah",
    "state": "Sarawak",
    "notes": "",
    "mapsAddress": "Jln Hj Mohd Fauzi, 96400 Mukah, Sarawak"
  },
  {
    "name": "Hospital Orang Asli",
    "latitude": 3.2919375,
    "longitude": 101.7309375,
    "globalPlusCode": "6PM37PRJ+Q9",
    "phone": "",
    "website": "http://hoag.moh.gov.my/",
    "beds": 93,
    "address": "KM 24, Jalan Pahang Lama, 53100 Gombak, Selangor,\n53100 Gombak,\nSelangor",
    "city": "Gombak",
    "state": "Selangor",
    "notes": "Name is different on Google Maps",
    "mapsAddress": "KM 24, Jalan Gombak, 53100 Kuala Lumpur, Wilayah Persekutuan Kuala Lumpur"
  },
  {
    "name": "Hospital Pakar Sultanah Fatimah",
    "latitude": 2.0570625,
    "longitude": 102.5744375,
    "globalPlusCode": "6PJ43H4F+RQ",
    "phone": "06-9521901",
    "website": "http://hpsf.moh.gov.my/v1/index.php/ms/",
    "beds": 550,
    "address": "Jalan Salleh,\nMuar, Johor,\n84000 Muar,\nJohor",
    "city": "Muar",
    "state": "Johor",
    "notes": "",
    "mapsAddress": "Jln Salleh, Taman Utama Satu, 84000 Muar, Johor"
  },
  {
    "name": "Hospital Papar",
    "latitude": 5.726812499999999,
    "longitude": 115.9238125,
    "globalPlusCode": "6PQQPWGF+PG",
    "phone": "088-913333",
    "website": "http://hpapar.moh.gov.my",
    "beds": 77,
    "address": "Peti Surat No. 6,,\nPapar, Sabah,\n89607 Papar,\nSabah",
    "city": "Papar",
    "state": "Sabah",
    "notes": "Postcode is different",
    "mapsAddress": "Jalan New Hospital, Papar, 89600 Kota Kinabalu, Sabah"
  },
  {
    "name": "Hospital Parit Buntar",
    "latitude": 5.1310625,
    "longitude": 100.4836875,
    "globalPlusCode": "6PQ24FJM+CF",
    "phone": "05-7163333",
    "website": "http://hptar.moh.gov.my",
    "beds": 100,
    "address": "Jalan Sempadan,\nParit Buntar, Perak,\n34200 Parit Buntar,\nPerak",
    "city": "Parit Buntar",
    "state": "Perak",
    "notes": "",
    "mapsAddress": "Jalan Sempadan, Kampung Permatang Tok Mamat, 34200 Parit Buntar, Negeri Perak"
  },
  {
    "name": "Hospital Pasir Mas",
    "latitude": 6.0139375,
    "longitude": 102.1189375,
    "globalPlusCode": "6PR42479+HH",
    "phone": "09-7932300",
    "website": "http://hmas.moh.gov.my/",
    "beds": 120,
    "address": "Jalan Meranti,\nPasir Mas, Kelantan,\n17000 Pasir Mas,\nKelantan",
    "city": "Pasir Mas",
    "state": "Kelantan",
    "notes": "",
    "mapsAddress": "Jalan Meranti Pasir Mas, Kelantan 17000 Pasir Mas Kelantan"
  },
  {
    "name": "Hospital Pekan",
    "latitude": 3.5023125,
    "longitude": 103.3800625,
    "globalPlusCode": "6PM5G92J+W2",
    "phone": "09-4223333",
    "website": "",
    "beds": 110,
    "address": "26600 Pekan,\nPekan, Pahang,\n26600 Pekan,\nPahang",
    "city": "Pekan",
    "state": "Pahang",
    "notes": "",
    "mapsAddress": "Jalan Batu Balik, Kampung Mengkasar, 26600 Pekan, Pahang"
  },
  {
    "name": "Hospital Permai",
    "latitude": 1.5231875,
    "longitude": 103.7055625,
    "globalPlusCode": "6PH5GPF4+76",
    "phone": "07-2373333",
    "website": "",
    "beds": 1400,
    "address": "Jalan Tampoi,\nJohor Bahru, Johor,\n81200 Johor Bahru,\nJohor",
    "city": "Johor Bahru",
    "state": "Johor",
    "notes": "",
    "mapsAddress": "Persiaran Kempas Baru, Kempas Banjaran, 81200 Johor Bahru, Johor"
  },
  {
    "name": "Hospital Pitas",
    "latitude": 6.711937499999999,
    "longitude": 117.0296875,
    "globalPlusCode": "6PRVP26H+QV",
    "phone": "088-676100",
    "website": "http://hpitas.moh.gov.my",
    "beds": 48,
    "address": "Peti Surat 88,\nPitas, Sabah,\n89100 Pitas,\nSabah",
    "city": "Pitas",
    "state": "Sabah",
    "notes": "",
    "mapsAddress": "Jalan Hospital, Pitas, 89100 Kota Marudu, Sabah"
  },
  {
    "name": "Hospital Pontian",
    "latitude": 1.4984375,
    "longitude": 103.3851875,
    "globalPlusCode": "6PH5F9XP+93",
    "phone": "07-6873333",
    "website": "",
    "beds": 120,
    "address": "Jalan Alsagoff,\nPontian, Johor,\n82000 Pontian,\nJohor",
    "city": "Pontian",
    "state": "Johor",
    "notes": "",
    "mapsAddress": "Jln. Alsagoff, Kampung Dalam, 82000 Pontian, Johor"
  },
  {
    "name": "Hospital Port Dickson",
    "latitude": 2.4776875,
    "longitude": 101.8550625,
    "globalPlusCode": "6PJ3FVH4+32",
    "phone": "06-6487333",
    "website": "http://hpd.moh.gov.my/",
    "beds": 94,
    "address": "KM 11, Jalan Pantai,\nPort Dickson, Negeri Sembilan,\n71050 Port Dickson,\nNegeri Sembilan",
    "city": "Port Dickson",
    "state": "Negeri Sembilan",
    "notes": "",
    "mapsAddress": "KM 11,, Jalan Pantai, 71050 Port Dickson, Negeri Sembilan"
  },
  {
    "name": "Hospital Pulau Pinang",
    "latitude": 5.4170625,
    "longitude": 100.3114375,
    "globalPlusCode": "6PQ2C886+RH",
    "phone": "04-2225333",
    "website": "http://jknpenang.moh.gov.my/hpp/",
    "beds": 1198,
    "address": "Jalan Residensi,\nPulau Pinang, Pulau Pinang,\n10990 Pulau Pinang,\nPulau Pinang",
    "city": "Pulau Pinang",
    "state": "Pulau Pinang",
    "notes": "",
    "mapsAddress": "Jalan Residensi, 10990 George Town, Pulau Pinang"
  },
  {
    "name": "Hospital Putrajaya",
    "latitude": 2.9290625,
    "longitude": 101.6741875,
    "globalPlusCode": "6PJ3WMHF+JM",
    "phone": "03-83124200",
    "website": "http://hpj.moh.gov.my/",
    "beds": 341,
    "address": "Pusat Pentadbiran Kerajaan Persekutuan, presint 7,\nPutrajaya, WP Putrajaya,\n62250 Putrajaya,\nWP Putrajaya",
    "city": "Putrajaya",
    "state": "WP Putrajaya",
    "notes": "",
    "mapsAddress": "Jalan P9, Presint 7, 62250 Putrajaya, Wilayah Persekutuan Putrajaya"
  },
  {
    "name": "Hospital Queen Elizabeth",
    "latitude": 5.9568125,
    "longitude": 116.0728125,
    "globalPlusCode": "6PQRX34F+P4",
    "phone": "088-517555",
    "website": "http://qeh.moh.gov.my",
    "beds": 775,
    "address": "Karung Berkunci N0.2029,\nKota Kinabalu, Sabah,\n88586 Kota Kinabalu,\nSabah",
    "city": "Kota Kinabalu",
    "state": "Sabah",
    "notes": "",
    "mapsAddress": "13a, Jalan Penampang, 88200 Kota Kinabalu, Sabah"
  },
  {
    "name": "Hospital Queen Elizabeth II",
    "latitude": 5.9664375,
    "longitude": 116.0938125,
    "globalPlusCode": "6PQRX38V+HG",
    "phone": "088-245249",
    "website": "http://hqe2.moh.gov.my",
    "beds": 291,
    "address": "Lorong Bersatu, Jalan Damai Luyang, Kota Kinabalu,\nKota Kinabalu, Sabah,\n88300 Kota Kinabalu,\nSabah",
    "city": "Kota Kinabalu",
    "state": "Sabah",
    "notes": "",
    "mapsAddress": "Lorong Bersatu, Off, Jalan Damai, Luyang Commercial Centre, 88300 Kota Kinabalu, Sabah"
  },
  {
    "name": "Hospital Raja Perempuan Zainab II",
    "latitude": 6.1253125,
    "longitude": 102.2456875,
    "globalPlusCode": "6PR446GW+47",
    "phone": "09-7452000",
    "website": "http://hrpz2.moh.gov.my",
    "beds": 937,
    "address": "Jalan Hospital,\nKota Bharu, Kelantan,\n15000 Kota Bharu,\nKelantan",
    "city": "Kota Bharu",
    "state": "Kelantan",
    "notes": "postcode different",
    "mapsAddress": "15586, Jalan Hospital, Bandar Kota Bharu, 15200 Kota Bharu, Kelantan"
  },
  {
    "name": "Hospital Raja Permaisuri Bainun",
    "latitude": 4.6023125,
    "longitude": 101.0965625,
    "globalPlusCode": "6PP3J32W+WJ",
    "phone": "05-2533333",
    "website": "http://hrpb.moh.gov.my",
    "beds": 990,
    "address": "Jalan Hospital,\nIpoh, Perak,\n30400 Ipoh,\nPerak",
    "city": "Ipoh",
    "state": "Perak",
    "notes": "",
    "mapsAddress": "Jalan Raja Ashman Shah, 30450 Ipoh, Negeri Perak"
  },
  {
    "name": "Hospital Rajah Charles Brooke Memorial",
    "latitude": 1.3890625,
    "longitude": 110.3224375,
    "globalPlusCode": "6PHG98QC+JX",
    "phone": "082-611123",
    "website": "",
    "beds": 20,
    "address": "Bt 13, Jalan Puncak Borneo, Kota Padawan,\nKuching, Sarawak,\n93250 Kuching,\nSarawak",
    "city": "Kuching",
    "state": "Sarawak",
    "notes": "",
    "mapsAddress": "Batu 13, Jalan Puncak Borneo, Kota Padawan, 93250, Kuching, Sarawak"
  },
  {
    "name": "Hospital Ranau",
    "latitude": 5.9538125,
    "longitude": 116.6710625,
    "globalPlusCode": "6PQRXM3C+GC",
    "phone": "088-875266",
    "website": "http://hranau.moh.gov.my",
    "beds": 110,
    "address": "Peti Surat 65,\nRanau, Sabah,\n89300 Ranau,\nSabah",
    "city": "Ranau",
    "state": "Sabah",
    "notes": "",
    "mapsAddress": "Peti Surat 65,, 89300 Ranau, Sabah"
  },
  {
    "name": "Hospital Raub",
    "latitude": 3.809562499999999,
    "longitude": 101.8528125,
    "globalPlusCode": "6PM3RV53+R4",
    "phone": "09-3553333",
    "website": "",
    "beds": 89,
    "address": "Jalan Tengku Abd Samad,\nRaub, Pahang,\n27600 Raub,\nPahang",
    "city": "Raub",
    "state": "Pahang",
    "notes": "",
    "mapsAddress": "Jalan Tengku Abdul Samad, 27600 Raub, Pahang"
  },
  {
    "name": "Hospital Rehabilitasi Cheras",
    "latitude": 3.1046875,
    "longitude": 101.7301875,
    "globalPlusCode": "6PM34P3J+V3",
    "phone": "03-91453400",
    "website": "",
    "beds": 156,
    "address": "Jalan Yaacob Latif, Bandar Tun Razak Cheras 56000 Kuala Lumpur\nWP Kuala Lumpur,\n56000 Kuala Lumpur,\nWP Kuala Lumpur",
    "city": "Kuala Lumpur",
    "state": "WP Kuala Lumpur",
    "notes": "",
    "mapsAddress": "Jalan Yaacob Latif, Bandar Tun Razak, 56000 Cheras, Wilayah Persekutuan Kuala Lumpur"
  },
  {
    "name": "Hospital Rompin",
    "latitude": 2.7960625,
    "longitude": 103.4960625,
    "globalPlusCode": "6PJ5QFWW+CC",
    "phone": "09-4141305",
    "website": "",
    "beds": 60,
    "address": "Jalan Kg Kolam Kuala Rompin\n26800 Rompin\nPahang,\n26800 Rompin,\nPahang",
    "city": "Rompin",
    "state": "Pahang",
    "notes": "",
    "mapsAddress": "Kampung Kolam, 26800 Kuala Rompin, Pahang"
  },
  {
    "name": "Hospital Saratok",
    "latitude": 1.7474375,
    "longitude": 111.3398125,
    "globalPlusCode": "6PHHP8WQ+XW",
    "phone": "083-436311",
    "website": "",
    "beds": 106,
    "address": "KM 1, Jalan Saratok,\nSaratok, Sarawak,\n95400 Saratok,\nSarawak",
    "city": "Saratok",
    "state": "Sarawak",
    "notes": "",
    "mapsAddress": "Jalan Saratok, 95400 Saratok, Sarawak"
  },
  {
    "name": "Hospital Sarikei",
    "latitude": 2.1319375,
    "longitude": 111.4920625,
    "globalPlusCode": "6PJH4FJR+QR",
    "phone": "084-653333",
    "website": "http://hsarikei.moh.gov.my",
    "beds": 212,
    "address": "Jalan Rentap,\nSarikei, Sarawak,\n96100 Sarikei,\nSarawak",
    "city": "Sarikei",
    "state": "Sarawak",
    "notes": "",
    "mapsAddress": "Jalan Rentap, 96100 Sarikei, Sarawak"
  },
  {
    "name": "Hospital Seberang Jaya",
    "latitude": 5.3951875,
    "longitude": 100.4066875,
    "globalPlusCode": "6PQ29CW4+3M",
    "phone": "04-3827333",
    "website": "http://jknpenang.moh.gov.my/hsj/",
    "beds": 314,
    "address": "Jln Tun Hussein Onn, Perai,\nPerai, Pulau Pinang,\n13700 Perai,\nPulau Pinang",
    "city": "Perai",
    "state": "Pulau Pinang",
    "notes": "",
    "mapsAddress": "Jalan Tun Hussein Onn, Seberang Jaya, 13700 Permatang Pauh, Pulau Pinang"
  },
  {
    "name": "Hospital Segamat",
    "latitude": 2.4933125,
    "longitude": 102.8590625,
    "globalPlusCode": "6PJ4FVV5+8J",
    "phone": "07-9433333",
    "website": "http://hsgm.moh.gov.my",
    "beds": 314,
    "address": "KM 6 Jalan Genuang,,\nSegamat, Johor,\n85000 Segamat,\nJohor",
    "city": "Segamat",
    "state": "Johor",
    "notes": "",
    "mapsAddress": "6, Jalan Genuang, Bandar Putra, 85000 Segamat, Johor"
  },
  {
    "name": "Hospital Selama",
    "latitude": 5.213062499999999,
    "longitude": 100.6889375,
    "globalPlusCode": "6PQ26M7Q+6H",
    "phone": "05-8394233",
    "website": "http://hselama.moh.gov.my",
    "beds": 90,
    "address": "Jalan Taiping,\nSelama, Perak,\n34100 Selama,\nPerak",
    "city": "Selama",
    "state": "Perak",
    "notes": "",
    "mapsAddress": "Jalan Taiping Selama, Perak 34100 Selama Perak"
  },
  {
    "name": "Hospital Selayang",
    "latitude": 3.2431875,
    "longitude": 101.6468125,
    "globalPlusCode": "6PM36JVW+7P",
    "phone": "03-61203233",
    "website": "http://hselayang.moh.gov.my",
    "beds": 960,
    "address": "Lebuhraya Selayang-Kepong,\nBatu Caves, Selangor,\n68100 Batu Caves,\nSelangor",
    "city": "Batu Caves",
    "state": "Selangor",
    "notes": "",
    "mapsAddress": "B21, Lebuhraya Selayang - Kepong, 68100 Batu Caves, Selangor"
  },
  {
    "name": "Hospital Semporna",
    "latitude": 4.4828125,
    "longitude": 118.6044375,
    "globalPlusCode": "6PPWFJM3+4Q",
    "phone": "089-781522",
    "website": "http://hspn.moh.gov.my",
    "beds": 70,
    "address": "Peti Surat 80,\nSemporna, Sabah,\n91307 Semporna,\nSabah",
    "city": "Semporna",
    "state": "Sabah",
    "notes": "",
    "mapsAddress": "Pekan Semporna, 91308 Semporna, Sabah"
  },
  {
    "name": "Hospital Sentosa",
    "latitude": 1.4629375,
    "longitude": 110.3298125,
    "globalPlusCode": "6PHGF87H+5W",
    "phone": "082-612321",
    "website": "",
    "beds": 338,
    "address": "Batu 7, Jalan Penenrisen,\nKuching, Sarawak,\n93250 Kuching,\nSarawak",
    "city": "Kuching",
    "state": "Sarawak",
    "notes": "",
    "mapsAddress": "Batu 7, Jalan Penrissen, Kota Sentosa, 93250 Kuching, Sarawak"
  },
  {
    "name": "Hospital Serdang",
    "latitude": 2.9761875,
    "longitude": 101.7201875,
    "globalPlusCode": "6PJ3XPGC+F3",
    "phone": "03-89475555",
    "website": "http://hserdang.moh.gov.my",
    "beds": 682,
    "address": "Jalan Puchong,\nKajang, Selangor,\n43000 Kajang,\nSelangor",
    "city": "Kajang",
    "state": "Selangor",
    "notes": "",
    "mapsAddress": "Jalan Puchong, 43000 Kajang, Selangor"
  },
  {
    "name": "Hospital Seri Manjung",
    "latitude": 4.1858125,
    "longitude": 100.6623125,
    "globalPlusCode": "6PP25MP6+8W",
    "phone": "05-689 6600",
    "website": "http://hsmanjung.moh.gov.my",
    "beds": 305,
    "address": "Seri Manjung,\n32040 Seri Manjung,\nPerak",
    "city": "Seri Manjung",
    "state": "Perak",
    "notes": "",
    "mapsAddress": "Seri Manjung 32040 Seri Manjung Perak"
  },
  {
    "name": "Hospital Serian",
    "latitude": 1.1763125,
    "longitude": 110.5635625,
    "globalPlusCode": "6PHG5HG7+GC",
    "phone": "082-874311",
    "website": "",
    "beds": 84,
    "address": "94700 Serian,\nSerian, Sarawak,\n94700 Serian,\nSarawak",
    "city": "Serian",
    "state": "Sarawak",
    "notes": "",
    "mapsAddress": "Bandar Serian, 94700 Serian, Sarawak"
  },
  {
    "name": "Hospital Setiu",
    "latitude": 5.5144375,
    "longitude": 102.7693125,
    "globalPlusCode": "6PQ4GQ79+QP",
    "phone": "09-6090333",
    "website": "http://hsetiu.moh.gov.my",
    "beds": 76,
    "address": "Bandar Permaisuri,\nSetiu, Terengganu,\n22100 Setiu,\nTerengganu",
    "city": "Setiu",
    "state": "Terengganu",
    "notes": "",
    "mapsAddress": "22100, Permaisuri, Terengganu, 22100"
  },
  {
    "name": "Hospital Shah Alam",
    "latitude": 3.0709375,
    "longitude": 101.4900625,
    "globalPlusCode": "6PM33FCR+92",
    "phone": "03-5526 3000",
    "website": "",
    "beds": 299,
    "address": "Hospital Shah Alam\nPersiaran Kayangan, Seksyen 7\n40000 Shah Alam\nSelangor,\n40000 Shah Alam,\nSelangor",
    "city": "Shah Alam",
    "state": "Selangor",
    "notes": "",
    "mapsAddress": "Persiaran Kayangan, Seksyen 7, 40000 Shah Alam, Selangor"
  },
  {
    "name": "Hospital Sibu",
    "latitude": 2.2964375,
    "longitude": 111.8919375,
    "globalPlusCode": "6PJH7VWR+HQ",
    "phone": "084-343333",
    "website": "http://hsibu.moh.gov.my",
    "beds": 555,
    "address": "Batu 5 ½,  Jalan Ulu Oya,\nSibu, Sarawak,\n96000 Sibu,\nSarawak",
    "city": "Sibu",
    "state": "Sarawak",
    "notes": "",
    "mapsAddress": "KM 5 1/2, Jalan Ulu Oya, 96000 Sibu, Sarawak"
  },
  {
    "name": "Hospital Sik",
    "latitude": 5.811062499999999,
    "longitude": 100.7285625,
    "globalPlusCode": "6PQ2RP6H+CC",
    "phone": "04-4695333",
    "website": "http://hsik.moh.gov.my/",
    "beds": 93,
    "address": "08200 Sik,\nSik, Kedah,\n08200 Sik,\nKedah",
    "city": "Sik",
    "state": "Kedah",
    "notes": "",
    "mapsAddress": "Pekan Sik, 08220 Sik, Kedah"
  },
  {
    "name": "Hospital Simunjan",
    "latitude": 1.3700625,
    "longitude": 110.7863125,
    "globalPlusCode": "6PHG9QCP+2G",
    "phone": "082-803984",
    "website": "",
    "beds": 42,
    "address": "Jalan Gunung Ngeli,\nSimunjan, Sarawak,\n94800 Simunjan,\nSarawak",
    "city": "Simunjan",
    "state": "Sarawak",
    "notes": "",
    "mapsAddress": "94800 Simunjan, Sarawak"
  },
  {
    "name": "Hospital Sipitang",
    "latitude": 5.0964375,
    "longitude": 115.5629375,
    "globalPlusCode": "6PQQ3HW7+H5",
    "phone": "087-822296",
    "website": "http://hsipitang.moh.gov.my",
    "beds": 93,
    "address": "Peti Surat 250,\nSipitang, Sabah,\n89857 Sipitang,\nSabah",
    "city": "Sipitang",
    "state": "Sabah",
    "notes": "",
    "mapsAddress": "Kilometer 2 Jalan Sipitang - Beaufort, Peti Surat 250, 89857 Sipitang, Sabah"
  },
  {
    "name": "Hospital Slim River",
    "latitude": 3.8371875,
    "longitude": 101.4041875,
    "globalPlusCode": "6PM3RCP3+VM",
    "phone": "05-4508000",
    "website": "http://hsr.moh.gov.my",
    "beds": 140,
    "address": "35800 Slim River,\nPerak",
    "city": "Slim River",
    "state": "Perak",
    "notes": "",
    "mapsAddress": "35800 Slim River, Perak"
  },
  {
    "name": "Hospital Sri Aman",
    "latitude": 1.2344375,
    "longitude": 111.4629375,
    "globalPlusCode": "6PHH6FM7+Q5",
    "phone": "083-322151",
    "website": "http://hsa.moh.gov.my",
    "beds": 96,
    "address": "Jalan Hospital,\nSri Aman, Sarawak,\n95007 Sri Aman,\nSarawak",
    "city": "Sri Aman",
    "state": "Sarawak",
    "notes": "",
    "mapsAddress": "Pekan Sri Aman, 95000 Sri Aman, Sarawak"
  },
  {
    "name": "Hospital Sultan Abdul Halim",
    "latitude": 5.6695625,
    "longitude": 100.5174375,
    "globalPlusCode": "6PQ2MG98+RX",
    "phone": "04-4457333",
    "website": "http://hsah.moh.gov.my/",
    "beds": 628,
    "address": "Jalan Lencongan Timur Bandar Amanjaya, Sungai Petani,\nSungai Petani, Kedah,\n08000 Sungai Petani,\nKedah",
    "city": "Sungai Petani",
    "state": "Kedah",
    "notes": "",
    "mapsAddress": "Jalan Lencongan Timur, Bandar Amanjaya, 08000 Sungai Petani, Kedah"
  },
  {
    "name": "Hospital Sultan Hj Ahmad Shah",
    "latitude": 3.4531875,
    "longitude": 102.4531875,
    "globalPlusCode": "6PM4FF33+77",
    "phone": "09-2955333",
    "website": "http://hoshas.moh.gov.my",
    "beds": 500,
    "address": "Jalan Maran,\nTemerloh, Pahang,\n28000 Temerloh,\nPahang",
    "city": "Temerloh",
    "state": "Pahang",
    "notes": "",
    "mapsAddress": "Jalan Maran, 28000 Temerloh, Pahang Darul Makmur"
  },
  {
    "name": "Hospital Sultan Ismail",
    "latitude": 1.5466875,
    "longitude": 103.7909375,
    "globalPlusCode": "6PH5GQWR+M9",
    "phone": "07-3565000",
    "website": "http://hsi.moh.gov.my",
    "beds": 704,
    "address": "Jalan Persiaran Mutiara Emas Utama, Taman Miount Austin,\nJohor Bahru, Johor,\n81100 Johor Bahru,\nJohor",
    "city": "Johor Bahru",
    "state": "Johor",
    "notes": "",
    "mapsAddress": "Jalan Mutiara Emas Utama, Taman Mount Austin, 81100 Johor Bahru, Johor"
  },
  {
    "name": "Hospital Sultan Ismail Petra",
    "latitude": 5.4973125,
    "longitude": 102.2245625,
    "globalPlusCode": "6PQ4F6WF+WR",
    "phone": "09-09611666",
    "website": "http://hsip.moh.gov.my/",
    "beds": 150,
    "address": "KM 6, Jalan Kuala Krai - Gua Musang,\n18000 Kuala Krai,\nKelantan",
    "city": "Kuala Krai",
    "state": "Kelantan",
    "notes": "",
    "mapsAddress": "18000 Kuala Krai, Kelantan"
  },
  {
    "name": "Hospital Sultanah Aminah",
    "latitude": 1.4574375,
    "longitude": 103.7466875,
    "globalPlusCode": "6PH5FP4W+XM",
    "phone": "07-2231666",
    "website": "http://hsajb.moh.gov.my",
    "beds": 1206,
    "address": "Johor Bahru,\nJohor Bahru, Johor,\n80100 Johor Bahru,\nJohor",
    "city": "Johor Bahru",
    "state": "Johor",
    "notes": "",
    "mapsAddress": "80000 Johor Bahru, Johor"
  },
  {
    "name": "Hospital Sultanah Bahiyah",
    "latitude": 6.1485625,
    "longitude": 100.4063125,
    "globalPlusCode": "6PR24CX4+CG",
    "phone": "04-7406233",
    "website": "http://hsbas.moh.gov.my/",
    "beds": 1084,
    "address": "KM 6, Jln Langgar, Alor Setar,\nAlor Setar, Kedah,\n05460 Alor Setar,\nKedah",
    "city": "Alor Setar",
    "state": "Kedah",
    "notes": "",
    "mapsAddress": "Km 6, Jalan Langgar, Bandar Alor Setar, 05460 Alor Setar, Kedah"
  },
  {
    "name": "Hospital Sultanah Hajjah Kalsom",
    "latitude": 4.4668125,
    "longitude": 101.3911875,
    "globalPlusCode": "6PP3F98R+PF",
    "phone": "05-4913333",
    "website": "",
    "beds": 28,
    "address": "Tanah Rata,,\nCameron Highlands, Pahang,\n39000 Cameron Highlands,\nPahang",
    "city": "Cameron Highlands",
    "state": "Pahang",
    "notes": "",
    "mapsAddress": "Tanah Rata, 39000 Tanah Rata, Pahang"
  },
  {
    "name": "Hospital Sultanah Nora Ismail",
    "latitude": 1.8369375,
    "longitude": 102.9408125,
    "globalPlusCode": "6PH4RWPR+Q8",
    "phone": "07-4363000",
    "website": "http://hsni.moh.gov.my",
    "beds": 516,
    "address": "Jalan Korma,83000 Batu Pahat,\nBatu Pahat, Johor,\n83000 Batu Pahat,\nJohor",
    "city": "Batu Pahat",
    "state": "Johor",
    "notes": "",
    "mapsAddress": "Jalan Korma, Taman Soga, 83000 Batu Pahat, Johor"
  },
  {
    "name": "Hospital Sultanah Nur Zahirah",
    "latitude": 5.325187500000001,
    "longitude": 103.1519375,
    "globalPlusCode": "6PQ585G2+3Q",
    "phone": "09-6212121",
    "website": "http://hsnzkt.moh.gov.my",
    "beds": 1060,
    "address": "Jalan Sultan Mahmud, Kuala Terengganu,\nKuala Terengganu, Terengganu,\n20400 Kuala Terengganu,\nTerengganu",
    "city": "Kuala Terengganu",
    "state": "Terengganu",
    "notes": "",
    "mapsAddress": "Hospital Sultanah Nur Zahirah, 20400 Kuala Terengganu, Terengganu"
  },
  {
    "name": "Hospital Sungai Bakap",
    "latitude": 5.219562499999999,
    "longitude": 100.4980625,
    "globalPlusCode": "6PQ26F9X+R6",
    "phone": "04-5824333",
    "website": "http://jknpenang.moh.gov.my/hsb/",
    "beds": 105,
    "address": "Sungai Jawi, Seberang Perai Selatan,\nSungai Jawi, Pulau Pinang,\n14200 Sungai Jawi,\nPulau Pinang",
    "city": "Sungai Jawi",
    "state": "Pulau Pinang",
    "notes": "",
    "mapsAddress": "Jalan Besar Sungai Bakap, Sungai Bakap, 14200 Sungai Jawi, Pulau Pinang"
  },
  {
    "name": "Hospital Sungai Buloh",
    "latitude": 3.2195625,
    "longitude": 101.5830625,
    "globalPlusCode": "6PM36H9M+R6",
    "phone": "03-61454333",
    "website": "http://hsgbuloh.moh.gov.my",
    "beds": 620,
    "address": "Jalan Hospital,\nSungai Buluh, Selangor,\n47000 Sungai Buluh,\nSelangor",
    "city": "Sungai Buluh",
    "state": "Selangor",
    "notes": "",
    "mapsAddress": "Jalan Hospital, 47000 Sungai Buloh, Selangor"
  },
  {
    "name": "Hospital Sungai Siput",
    "latitude": 4.8279375,
    "longitude": 101.0570625,
    "globalPlusCode": "6PP3R3H4+5R",
    "phone": "05-5983333",
    "website": "http://hsgsiput.moh.gov.my",
    "beds": 93,
    "address": "Jalan Felda Lasah,\nSungai Siput, Perak,\n31100 Sungai Siput,\nPerak",
    "city": "Sungai Siput",
    "state": "Perak",
    "notes": "",
    "mapsAddress": "Jalan Felda Lasah, 31100 Sungai Siput, Negeri Perak"
  },
  {
    "name": "Hospital Taiping",
    "latitude": 4.849937499999999,
    "longitude": 100.7364375,
    "globalPlusCode": "6PP2RPXP+XH",
    "phone": "05-8204000",
    "website": "http://htaiping.moh.gov.my",
    "beds": 608,
    "address": "Jalan Taming Sari,\nTaiping, Perak,\n34000 Taiping,\nPerak",
    "city": "Taiping",
    "state": "Perak",
    "notes": "",
    "mapsAddress": "Jalan Taming Sari, 34000 Taiping, Negeri Perak"
  },
  {
    "name": "Hospital Tambunan",
    "latitude": 5.6825625,
    "longitude": 116.3710625,
    "globalPlusCode": "6PQRM9MC+2C",
    "phone": "087-774333",
    "website": "http://htbn.moh.gov.my",
    "beds": 49,
    "address": "Peti Surat 10,\nTambunan, Sabah,\n89657 Tambunan,\nSabah",
    "city": "Tambunan",
    "state": "Sabah",
    "notes": "",
    "mapsAddress": "Peti Surat 10, Tambunan, 89657, Tambunan, Sabah"
  },
  {
    "name": "Hospital Tampin",
    "latitude": 2.4848125,
    "longitude": 102.2336875,
    "globalPlusCode": "6PJ4F6MM+WF",
    "phone": "06-4411511",
    "website": "http://htampin.moh.gov.my/",
    "beds": 85,
    "address": "Jalan Haji Ahmad Zainuddin, Tampin,\nTampin, Negeri Sembilan,\n73009 Tampin,\nNegeri Sembilan",
    "city": "Tampin",
    "state": "Negeri Sembilan",
    "notes": "",
    "mapsAddress": "Jln Tampin-Gemas, Kampung Keru Tengah, 73000 Tampin, Negeri Sembilan"
  },
  {
    "name": "Hospital Tanah Merah",
    "latitude": 5.8099375,
    "longitude": 102.1523125,
    "globalPlusCode": "6PQ4R552+XW",
    "phone": "09-9545000",
    "website": "http://hmerah.moh.gov.my/",
    "beds": 120,
    "address": "17500 Tanah Merah,\nTanah Merah, Kelantan,\n17500 Tanah Merah,\nKelantan",
    "city": "Tanah Merah",
    "state": "Kelantan",
    "notes": "",
    "mapsAddress": "17500 Tanah Merah, Kelantan"
  },
  {
    "name": "Hospital Tangkak",
    "latitude": 2.2720625,
    "longitude": 102.5468125,
    "globalPlusCode": "6PJ47GCW+RP",
    "phone": "06-9782792",
    "website": "",
    "beds": 69,
    "address": "Jalan Hospital,  Tangkak Muar,\nTangkak, Johor,\n84900 Tangkak,\nJohor",
    "city": "Tangkak",
    "state": "Johor",
    "notes": "",
    "mapsAddress": "Kampung Padang Lalang, 84900 Tangkak, Johor"
  },
  {
    "name": "Hospital Tanjung Karang",
    "latitude": 3.4248125,
    "longitude": 101.1789375,
    "globalPlusCode": "6PM3C5FH+WH",
    "phone": "03-32698333",
    "website": "",
    "beds": 114,
    "address": "Tanjung Karang,\nTanjung Karang, Selangor,\n45500 Tanjung Karang,\nSelangor",
    "city": "Tanjung Karang",
    "state": "Selangor",
    "notes": "",
    "mapsAddress": "Pekan Tanjong Karang, 45500 Tanjung Karang, Selangor"
  },
  {
    "name": "Hospital Tapah",
    "latitude": 4.201812500000001,
    "longitude": 101.2595625,
    "globalPlusCode": "6PP36725+PR",
    "phone": "05-4011333",
    "website": "http://htapah.moh.gov.my",
    "beds": 100,
    "address": "Jalan Temoh,\nTapah, Perak,\n35000 Tapah,\nPerak",
    "city": "Tapah",
    "state": "Perak",
    "notes": "",
    "mapsAddress": "Jalan Temoh, 35000 Tapah, Perak"
  },
  {
    "name": "Hospital Tawau",
    "latitude": 4.249687499999999,
    "longitude": 117.8806875,
    "globalPlusCode": "6PPV6VXJ+V7",
    "phone": "089-773533",
    "website": "http://htwu.moh.gov.my",
    "beds": 401,
    "address": "Peti Surat 80,\nTawau, Sabah,\n91007 Tawau,\nSabah",
    "city": "Tawau",
    "state": "Sabah",
    "notes": "",
    "mapsAddress": "67, Peti Surat, 91007 Tawau, Sabah"
  },
  {
    "name": "Hospital Teluk Intan",
    "latitude": 4.0045625,
    "longitude": 101.0403125,
    "globalPlusCode": "6PP3223R+R4",
    "phone": "05-6213333",
    "website": "http://htintan.moh.gov.my",
    "beds": 548,
    "address": "Jalan Changkat Jong,\nTeluk Intan, Perak,\n36000 Teluk Intan,\nPerak",
    "city": "Teluk Intan",
    "state": "Perak",
    "notes": "",
    "mapsAddress": "Jalan Changkat Jong, 36000 Teluk Intan, Negeri Perak"
  },
  {
    "name": "Hospital Temenggong Seri Maharaja Tun Ibrahim",
    "latitude": 1.6396875,
    "longitude": 103.6238125,
    "globalPlusCode": "6PH5JJQF+VG",
    "phone": "07-6623333",
    "website": "",
    "beds": 93,
    "address": "Hospital Temenggong Seri Maharaja Tun Ibrahim, 81000 Kulai,\nKulaijaya, Johor,\n81000 Kulaijaya,\nJohor",
    "city": "Kulaijaya",
    "state": "Johor",
    "notes": "",
    "mapsAddress": "Senai Highway, 81000 Kulai, Johor"
  },
  {
    "name": "Hospital Tengku Ampuan Afzan",
    "latitude": 3.800437499999999,
    "longitude": 103.3215625,
    "globalPlusCode": "6PM5R82C+5J",
    "phone": "09-5133333",
    "website": "http://htaa.moh.gov.my/",
    "beds": 793,
    "address": "Jalan Air Putih,\nKuantan, Pahang,\n25100 Kuantan,\nPahang",
    "city": "Kuantan",
    "state": "Pahang",
    "notes": "",
    "mapsAddress": "Jalan Tanah Putih, 25100 Kuantan, Pahang"
  },
  {
    "name": "Hospital Tengku Ampuan Jemaah",
    "latitude": 3.7613125,
    "longitude": 100.9898125,
    "globalPlusCode": "6PM2QX6Q+GW",
    "phone": "03-32163333",
    "website": "http://htaj.moh.gov.my",
    "beds": 93,
    "address": "45200 Sabak Bernam,\nSabak Bernam, Selangor,\n45200 Sabak Bernam,\nSelangor",
    "city": "Sabak Bernam",
    "state": "Selangor",
    "notes": "",
    "mapsAddress": "Jalan Hospital, 45200 Sabak, Selangor"
  },
  {
    "name": "Hospital Tengku Ampuan Rahimah",
    "latitude": 3.0199375,
    "longitude": 101.4404375,
    "globalPlusCode": "6PM32C9R+X5",
    "phone": "03 3375 7000",
    "website": "http://htar.moh.gov.my",
    "beds": 1154,
    "address": "Jalan Langat,41200 Klang,\nKlang, Selangor,\n41200 Klang,\nSelangor",
    "city": "Klang",
    "state": "Selangor",
    "notes": "",
    "mapsAddress": "Jalan Langat, 41200 Klang, Selangor"
  },
  {
    "name": "Hospital Tengku Anis",
    "latitude": 5.8329375,
    "longitude": 102.3878125,
    "globalPlusCode": "6PQ4R9MQ+54",
    "phone": "09-7843333",
    "website": "",
    "beds": 75,
    "address": "Jalan Pasir Puteh,\nPasir Puteh, Kelantan,\n16800 Pasir Puteh,\nKelantan",
    "city": "Pasir Puteh",
    "state": "Kelantan",
    "notes": "",
    "mapsAddress": "Jalan Pasir Puteh - Tok Bali, Kota Bharu, 16800 Pasir Puteh, Kelantan"
  },
  {
    "name": "Hospital Tenom",
    "latitude": 5.123187499999999,
    "longitude": 115.9413125,
    "globalPlusCode": "6PQQ4WFR+7G",
    "phone": "087-735577",
    "website": "http://htenom.moh.gov.my",
    "beds": 70,
    "address": "Peti surat 97,\nTenom, Sabah,\n89907 Tenom,\nSabah",
    "city": "Tenom",
    "state": "Sabah",
    "notes": "",
    "mapsAddress": "Hospital Tenom, Peti Surat 97, Tenom, 89907, Tenom, Sabah"
  },
  {
    "name": "Hospital Tuanku Ampuan Najihah",
    "latitude": 2.7348125,
    "longitude": 102.2330625,
    "globalPlusCode": "6PJ4P6MM+W6",
    "phone": "06-4818001",
    "website": "http://htan.moh.gov.my",
    "beds": 314,
    "address": "KM 3 Jalan Melang,\nKuala Pilah, Negeri Sembilan,\n72000 Kuala Pilah,\nNegeri Sembilan",
    "city": "Kuala Pilah",
    "state": "Negeri Sembilan",
    "notes": "",
    "mapsAddress": "KM 3, Jalan Melang, Kampung Gemelang, 72000 Kuala Pilah, Negeri Sembilan"
  },
  {
    "name": "Hospital Tuanku Fauziah",
    "latitude": 6.441062500000001,
    "longitude": 100.1913125,
    "globalPlusCode": "6PR2C5RR+CG",
    "phone": "04-9738000",
    "website": "http://htf.moh.gov.my",
    "beds": 476,
    "address": "Jalan Kolam, 01000 Kangar,\nKangar, Perlis,\n01000 Kangar,\nPerlis",
    "city": "Kangar",
    "state": "Perlis",
    "notes": "",
    "mapsAddress": "3, Jalan Tun Abdul Razak, Pusat Bandar Kangar, 01000 Kangar, Perlis"
  },
  {
    "name": "Hospital Tuanku Ja'afar Seremban",
    "latitude": 2.7090625,
    "longitude": 101.9435625,
    "globalPlusCode": "6PJ3PW5V+JC",
    "phone": "06-7623333",
    "website": "http://htjs.moh.gov.my/",
    "beds": 850,
    "address": "Jalan Rasah,\nSeremban, Negeri Sembilan,\n70300 Seremban,\nNegeri Sembilan",
    "city": "Seremban",
    "state": "Negeri Sembilan",
    "notes": "",
    "mapsAddress": "Jalan Rasah, Bukit Rasah, 70300 Seremban, Negeri Sembilan"
  },
  {
    "name": "Hospital Tuaran",
    "latitude": 6.1439375,
    "longitude": 116.2190625,
    "globalPlusCode": "6PRR46V9+HJ",
    "phone": "088-788317",
    "website": "http://htuaran.moh.gov.my",
    "beds": 0,
    "address": "Peti surat 996, 89207 Tuaran Sabah,\nTuaran, Sabah,\n89207 Tuaran,\nSabah",
    "city": "Tuaran",
    "state": "Sabah",
    "notes": "",
    "mapsAddress": "Jalan hospital Tuaran Tuaran, 89200 Kota Kinabalu, Sabah"
  },
  {
    "name": "Hospital Tumpat",
    "latitude": 6.1896875,
    "longitude": 102.1573125,
    "globalPlusCode": "6PR455Q4+VW",
    "phone": "09-7263000",
    "website": "http://htumpat.moh.gov.my/",
    "beds": 119,
    "address": "Jalan Kelaburan,\nTumpat, Kelantan,\n62000 Tumpat,\nKelantan",
    "city": "Tumpat",
    "state": "Kelantan",
    "notes": "Google maps address seems wrong",
    "mapsAddress": "Jalan Kelaburan, 16200 Tumpat, Kelantan"
  },
  {
    "name": "Hospital Tunku Azizah (Wanita Dan Kanak-Kanak)",
    "latitude": 3.1698125,
    "longitude": 101.7028125,
    "globalPlusCode": "6PM35P93+W4",
    "phone": "",
    "website": "",
    "beds": 0,
    "address": "Jalan Raja Muda Abdul Aziz,\nKampung Baru,\n50300 Kuala Lumpur,\nWP Kuala Lumpur",
    "city": "Kuala Lumpur",
    "state": "WP Kuala Lumpur",
    "notes": "Was originally Hospital Wanita dan Kanak-Kanak Kuala Lumpur, and still is on google maps. Another (private) hospital named Rampai Puteri was originally called Tunku Azizah Hospital!!! And renamed in 2016.\nThis hospital is actually part of HKL's complex of hospitals, which is why the address is weird and doesn't match on google maps vs official.\nhttps://www.thestar.com.my/news/nation/2020/01/21/women-and-kids-centre-renamed-tunku-azizah-hospital",
    "mapsAddress": "Jalan Dr Latif, Titiwangsa, 50586 Kuala Lumpur, Wilayah Persekutuan Kuala Lumpur"
  },
  {
    "name": "Hospital Umum Kuching",
    "latitude": 1.5436875,
    "longitude": 110.3396875,
    "globalPlusCode": "6PHGG8VQ+FV",
    "phone": "082-276666",
    "website": "http://hus.moh.gov.my",
    "beds": 765,
    "address": "Jalan Tun Ahmad Zaidi Adruce,\nKuching, Sarawak,\n93586 Kuching,\nSarawak",
    "city": "Kuching",
    "state": "Sarawak",
    "notes": "",
    "mapsAddress": "Jalan Hospital, 93586 Kuching, Sarawak"
  },
  {
    "name": "Hospital Wanita dan Kanak-Kanak Sabah",
    "latitude": 6.013812499999999,
    "longitude": 116.1194375,
    "globalPlusCode": "6PRR2479+GQ",
    "phone": "088-522600",
    "website": "http://hwkks.moh.gov.my",
    "beds": 504,
    "address": "Karung Berkunci 187,\nKota Kinabalu, Sabah,\n88996 Kota Kinabalu,\nSabah",
    "city": "Kota Kinabalu",
    "state": "Sabah",
    "notes": "",
    "mapsAddress": "187, Sabah Karung Berkunci, 88996 Kota Kinabalu, Sabah"
  },
  {
    "name": "Hospital Yan",
    "latitude": 5.8210625,
    "longitude": 100.3843125,
    "globalPlusCode": "6PQ2R9CM+CP",
    "phone": "04-4655333",
    "website": "http://hyan.moh.gov.my/",
    "beds": 89,
    "address": "Batu 25 Jalan Yan,\nYan, Kedah,\n06900 Yan,\nKedah",
    "city": "Yan",
    "state": "Kedah",
    "notes": "",
    "mapsAddress": "Kampung Sungai Udang, 06900 Yan, Kedah"
  },
  {
    "name": "Institut Kanser Negara",
    "latitude": 2.9269375,
    "longitude": 101.6739375,
    "globalPlusCode": "6PJ3WMGF+QH",
    "phone": "03-88925555",
    "website": "",
    "beds": 252,
    "address": "No 4, Jalan P7, Presint 7\n62250 Putrajaya\nWP Putrajaya,\n62250 Putrajaya,\nWP Putrajaya",
    "city": "Putrajaya  ",
    "state": "WP Putrajaya",
    "notes": "",
    "mapsAddress": "4, Jalan P7, Presint 7, 62250 Putrajaya, Wilayah Persekutuan Putrajaya"
  },
  {
    "name": "Institut Perubatan Respiratori",
    "latitude": 3.1756875,
    "longitude": 101.6996875,
    "globalPlusCode": "6PM35MGX+7V",
    "phone": "03-40232966",
    "website": "",
    "beds": 118,
    "address": "Jalan Pahang,\nKuala Lumpur, WP Kuala Lumpur,\n53000 Kuala Lumpur,\nWP Kuala Lumpur",
    "city": "Kuala Lumpur",
    "state": "WP Kuala Lumpur",
    "notes": "",
    "mapsAddress": "Jalan Pahang, Pekeliling, 53000 Kuala Lumpur, Wilayah Persekutuan Kuala Lumpur"
  },
  {
    "name": "Pusat Jantung Sarawak",
    "latitude": 1.4809375,
    "longitude": 110.4190625,
    "globalPlusCode": "6PHGFCJ9+9J",
    "phone": "082-668111",
    "website": "",
    "beds": 112,
    "address": "Jalan Expressway Kota Samarahan\n94300 Samarahan\nSarawak,\n94300 Samarahan,\nSarawak",
    "city": "Samarahan",
    "state": "Sarawak",
    "notes": "",
    "mapsAddress": "Kuching - Samarahan Expressway, 94300 Kota Samarahan, Sarawak"
  },
  {
    "name": "Pusat Kawalan Kusta Negara",
    "latitude": 3.2216875,
    "longitude": 101.5836875,
    "globalPlusCode": "6PM36HCM+MF",
    "phone": "03-61561321",
    "website": "",
    "beds": 110,
    "address": "Sungai Buluh,\nSungai Buluh, Selangor,\n47000 Sungai Buluh,\nSelangor",
    "city": "Sungai Buluh",
    "state": "Selangor",
    "notes": "",
    "mapsAddress": "Jalan Hospital, 47000 Sungai Buloh, Selangor"
  }
]